[{"id":1,"name":"Abramowskiego-Sienkiewicza","latitude":51.75425,"longitude":19.46545},{"id":2,"name":"Brzeźna-Piotrkowska","latitude":51.75286,"longitude":19.46029},{"id":3,"name":"Chochoła","latitude":51.8044,"longitude":19.35776},{"id":4,"name":"Aleksandrowska-Lechicka","latitude":51.80375,"longitude":19.36265},{"id":5,"name":"Aleksandrowska-Szczecińska","latitude":51.8028,"longitude":19.36713},{"id":6,"name":"Aleksandrowska-Szparagowa","latitude":51.80113,"longitude":19.37542},{"id":7,"name":"Teofilów","latitude":51.80229,"longitude":19.3681},{"id":8,"name":"Aleksandrowska-Kaczeńcowa","latitude":51.79904,"longitude":19.38588},{"id":9,"name":"Aleksandrowska-Traktorowa","latitude":51.79751,"longitude":19.39352},{"id":10,"name":"Aleksandrowska-Kaczeńcowa","latitude":51.79868,"longitude":19.38818},{"id":11,"name":"Aleksandrowska-Traktorowa","latitude":51.79727,"longitude":19.39527},{"id":12,"name":"Aleksandrowska-Bielicowa","latitude":51.79582,"longitude":19.40199},{"id":13,"name":"Aleksandrowska-Bielicowa","latitude":51.79565,"longitude":19.40354},{"id":14,"name":"Limanowskiego-Woronicza","latitude":51.79416,"longitude":19.41058},{"id":16,"name":"Woronicza-Dw. Łódź Żabieniec","latitude":51.79304,"longitude":19.40858},{"id":17,"name":"Limanowskiego-zajezdnia LIMANOWSKIE","latitude":51.79151,"longitude":19.42553},{"id":18,"name":"Limanowskiego-Żabieniec","latitude":51.79418,"longitude":19.41088},{"id":19,"name":"Aleksandrowska-Bielicowa","latitude":51.79566,"longitude":19.40328},{"id":20,"name":"Aleksandrowska-Traktorowa","latitude":51.79731,"longitude":19.39511},{"id":21,"name":"Aleksandrowska-Bielicowa","latitude":51.79631,"longitude":19.40144},{"id":22,"name":"Traktorowa-Grabieniec","latitude":51.79576,"longitude":19.3939},{"id":23,"name":"Aleksandrowska-Traktorowa","latitude":51.79795,"longitude":19.39334},{"id":24,"name":"Traktorowa-Sierpowa","latitude":51.79899,"longitude":19.3947},{"id":25,"name":"Aleksandrowska-Kaczeńcowa","latitude":51.79873,"longitude":19.38795},{"id":26,"name":"Kaczeńcowa-Aleksandrowska","latitude":51.80043,"longitude":19.38793},{"id":27,"name":"Aleksandrowska-Kaczeńcowa","latitude":51.79946,"longitude":19.38562},{"id":28,"name":"Aleksandrowska-Szparagowa","latitude":51.80093,"longitude":19.37694},{"id":29,"name":"Szparagowa-Aleksandrowska","latitude":51.80195,"longitude":19.37737},{"id":30,"name":"Aleksandrowska-Szczecińska","latitude":51.80255,"longitude":19.36884},{"id":31,"name":"Aleksandrowska-Lechicka","latitude":51.80378,"longitude":19.36274},{"id":32,"name":"Chochoła","latitude":51.8046,"longitude":19.35703},{"id":33,"name":"Armii Krajowej-Napierskiego","latitude":51.74679,"longitude":19.39797},{"id":34,"name":"Kusocińskiego-Armii Krajowej","latitude":51.74998,"longitude":19.39136},{"id":35,"name":"Armii Krajowej-Napierskiego","latitude":51.74704,"longitude":19.39754},{"id":36,"name":"Retkińska-Wyszyńskiego","latitude":51.74902,"longitude":19.4074},{"id":38,"name":"Augustów-Przybyszewskiego","latitude":51.75044,"longitude":19.54766},{"id":39,"name":"Augustów-Wujaka","latitude":51.75337,"longitude":19.55104},{"id":40,"name":"Augustów-Rokicińska","latitude":51.75672,"longitude":19.55326},{"id":41,"name":"Rokicińska-Lermontowa","latitude":51.75869,"longitude":19.5498},{"id":42,"name":"Augustów-Rokicińska","latitude":51.75659,"longitude":19.55314},{"id":43,"name":"Augustów-Wujaka","latitude":51.75319,"longitude":19.55063},{"id":44,"name":"Augustów-Przybyszewskiego","latitude":51.75173,"longitude":19.54895},{"id":46,"name":"Pabianicka-Chocianowicka","latitude":51.70602,"longitude":19.42206},{"id":47,"name":"Pabianicka-Długa","latitude":51.703,"longitude":19.41801},{"id":48,"name":"Grabińska-Nowosolna","latitude":51.79458,"longitude":19.58983},{"id":49,"name":"Grabińska-Grabińska 10","latitude":51.8016,"longitude":19.59068},{"id":50,"name":"Grabińska-Nowosolna","latitude":51.79445,"longitude":19.58966},{"id":51,"name":"Wiączyńska-Nowosolna","latitude":51.79271,"longitude":19.59107},{"id":52,"name":"Bieszczadzka-Kolumny","latitude":51.70743,"longitude":19.51265},{"id":53,"name":"Józefów-Bieszczadzka","latitude":51.70644,"longitude":19.51092},{"id":54,"name":"Bieszczadzka-Kolumny","latitude":51.70768,"longitude":19.51276},{"id":55,"name":"Kolumny-Bronisin","latitude":51.70798,"longitude":19.51746},{"id":56,"name":"Borowa-Siewna","latitude":51.77988,"longitude":19.40942},{"id":57,"name":"Siewna-Krakowska","latitude":51.77937,"longitude":19.40052},{"id":58,"name":"Boya-Żeleńskiego-Sucharskiego","latitude":51.79027,"longitude":19.47564},{"id":59,"name":"Wojska Polskiego-Sporna","latitude":51.78927,"longitude":19.47999},{"id":60,"name":"Boya-Żeleńskiego-Sucharskiego","latitude":51.79047,"longitude":19.47449},{"id":61,"name":"Obr.Westerplatte-Organizacji WiN","latitude":51.78927,"longitude":19.46781},{"id":62,"name":"Bratysławska-Wróblewskiego","latitude":51.74923,"longitude":19.42288},{"id":63,"name":"Bratysławska-Wileńska","latitude":51.75198,"longitude":19.42514},{"id":64,"name":"Grabińska-Podwodna","latitude":51.80635,"longitude":19.59102},{"id":65,"name":"Bandurskiego-Dw. Łódź Kaliska","latitude":51.75563,"longitude":19.43186},{"id":66,"name":"Bratysławska-Wróblewskiego","latitude":51.74979,"longitude":19.42329},{"id":67,"name":"Wyszyńskiego-Waltera-Janke","latitude":51.74753,"longitude":19.4179},{"id":69,"name":"Grabińska-Grabińska 10","latitude":51.8017,"longitude":19.59041},{"id":70,"name":"Broniewskiego-Kilińskiego","latitude":51.7311,"longitude":19.47677},{"id":71,"name":"Broniewskiego-Kraszewskiego","latitude":51.73218,"longitude":19.48202},{"id":72,"name":"Kilińskiego-Dąbrowskiego","latitude":51.73791,"longitude":19.47883},{"id":73,"name":"Broniewskiego-Śmigłego-Rydza","latitude":51.73248,"longitude":19.48659},{"id":74,"name":"Broniewskiego-Tatrzańska","latitude":51.73302,"longitude":19.49264},{"id":75,"name":"Felińskiego-Kruczkowskiego","latitude":51.73235,"longitude":19.49592},{"id":76,"name":"Tatrzańska-Dąbrowskiego","latitude":51.73823,"longitude":19.4949},{"id":77,"name":"Dąbrowskiego-Kossaka","latitude":51.73658,"longitude":19.49803},{"id":78,"name":"Broniewskiego-Śmigłego-Rydza","latitude":51.73293,"longitude":19.49084},{"id":79,"name":"Broniewskiego-Kraszewskiego","latitude":51.73236,"longitude":19.48148},{"id":80,"name":"Broniewskiego-Kilińskiego","latitude":51.73097,"longitude":19.47581},{"id":81,"name":"Rzgowska-Bankowa","latitude":51.72917,"longitude":19.47643},{"id":82,"name":"Dąbrowskiego-Kilińskiego","latitude":51.73865,"longitude":19.47834},{"id":83,"name":"Paderewskiego-Tuszyńska","latitude":51.72856,"longitude":19.46929},{"id":84,"name":"Rzgowska-Paderewskiego","latitude":51.73174,"longitude":19.47385},{"id":85,"name":"Paderewskiego-Rzgowska","latitude":51.73031,"longitude":19.47379},{"id":86,"name":"Brukowa-Limanowskiego","latitude":51.79601,"longitude":19.40948},{"id":87,"name":"Brukowa-Pojezierska","latitude":51.80026,"longitude":19.41096},{"id":88,"name":"Pojezierska-Elektrociepłownia EC3","latitude":51.79952,"longitude":19.4201},{"id":89,"name":"Brukowa-św. Teresy","latitude":51.80583,"longitude":19.41183},{"id":90,"name":"Św. Teresy-Włókniarzy","latitude":51.80439,"longitude":19.42189},{"id":91,"name":"Brukowa-Pojezierska","latitude":51.80184,"longitude":19.41121},{"id":92,"name":"Limanowskiego-Dw. Łódź Żabieniec","latitude":51.79514,"longitude":19.40744},{"id":93,"name":"Grabińska 40","latitude":51.81422,"longitude":19.5919},{"id":94,"name":"Grabińska-Podwodna","latitude":51.80621,"longitude":19.59089},{"id":95,"name":"Grabina-Grabina/Lipowa1","latitude":51.8195,"longitude":19.59675},{"id":96,"name":"Grabińska 39","latitude":51.81374,"longitude":19.59168},{"id":97,"name":"Brzezińska-Śnieżna","latitude":51.79596,"longitude":19.50407},{"id":98,"name":"Brzezińska-CH M1","latitude":51.79627,"longitude":19.51081},{"id":99,"name":"Brzezińska-Kerna","latitude":51.79648,"longitude":19.51605},{"id":100,"name":"Brzezińska-Janosika","latitude":51.79653,"longitude":19.52353},{"id":101,"name":"Brzezińska-Marmurowa","latitude":51.7959,"longitude":19.53405},{"id":102,"name":"Janosika-Powstańców Śląskich","latitude":51.79242,"longitude":19.52374},{"id":103,"name":"Zjazdowa-Beskidzka","latitude":51.79998,"longitude":19.5292},{"id":104,"name":"Brzezińska-Olkuska","latitude":51.79589,"longitude":19.55699},{"id":106,"name":"Brzezińska-Karkonoska","latitude":51.79593,"longitude":19.54936},{"id":107,"name":"Brzezińska-Granatowa","latitude":51.79528,"longitude":19.56602},{"id":108,"name":"Brzezińska-Hiacyntowa","latitude":51.79469,"longitude":19.57526},{"id":109,"name":"Brzezińska-Nowosolna","latitude":51.7937,"longitude":19.58909},{"id":110,"name":"Brzezińska-Hiacyntowa","latitude":51.79495,"longitude":19.57339},{"id":111,"name":"Brzezińska-Granatowa","latitude":51.79554,"longitude":19.56419},{"id":112,"name":"Brzezińska-Karkonoska","latitude":51.79607,"longitude":19.54842},{"id":113,"name":"Brzezińska-Olkuska","latitude":51.79583,"longitude":19.5595},{"id":114,"name":"Brzezińska-Marmurowa","latitude":51.79603,"longitude":19.53562},{"id":115,"name":"Brzezińska-Janosika","latitude":51.7967,"longitude":19.5231},{"id":116,"name":"Brzezińska-Kerna","latitude":51.7967,"longitude":19.51311},{"id":117,"name":"Brzezińska-Śnieżna","latitude":51.79585,"longitude":19.50173},{"id":118,"name":"Wojska Polskiego-Łomnicka","latitude":51.79317,"longitude":19.49261},{"id":119,"name":"Brzeźna-Piotrkowska","latitude":51.75275,"longitude":19.46057},{"id":120,"name":"Sienkiewicza-Tymienieckiego (Ericss","latitude":51.75013,"longitude":19.46383},{"id":121,"name":"Sienkiewicza-Pogotowie Ratunkowe","latitude":51.75451,"longitude":19.46416},{"id":122,"name":"Radwańska-Wólczańska","latitude":51.7525,"longitude":19.45629},{"id":123,"name":"Chocianowicka-Chocianowicka 199","latitude":51.70897,"longitude":19.38187},{"id":124,"name":"Chocianowicka-Chocianowicka 143","latitude":51.70835,"longitude":19.39175},{"id":125,"name":"Chocianowicka-Chocianowicka 95","latitude":51.70774,"longitude":19.40187},{"id":126,"name":"Chocianowicka-Chocianowicka 57","latitude":51.70722,"longitude":19.41036},{"id":127,"name":"Pabianicka-Chocianowicka","latitude":51.70677,"longitude":19.42367},{"id":128,"name":"Chocianowicka-Chocianowicka 57","latitude":51.70732,"longitude":19.41018},{"id":129,"name":"Chocianowicka-Chocianowicka 95","latitude":51.70784,"longitude":19.40156},{"id":130,"name":"Chocianowicka-Chocianowicka 143","latitude":51.70841,"longitude":19.39218},{"id":131,"name":"Chocianowicka-Chocianowicka 199","latitude":51.70908,"longitude":19.38148},{"id":132,"name":"Łaskowice-Nad Dobrzynką","latitude":51.7097,"longitude":19.37142},{"id":133,"name":"Cmentarna-Legionów","latitude":51.77511,"longitude":19.44298},{"id":134,"name":"Legionów-Gdańska","latitude":51.77606,"longitude":19.44705},{"id":135,"name":"Cmentarna-Legionów","latitude":51.77528,"longitude":19.44217},{"id":136,"name":"Cmentarna-cm. Ogrodowa","latitude":51.77572,"longitude":19.43715},{"id":137,"name":"Srebrzyńska-Kasprzaka","latitude":51.77362,"longitude":19.42798},{"id":138,"name":"Czechosłowacka-Mazowiecka","latitude":51.77205,"longitude":19.50943},{"id":139,"name":"Czechosłowacka-Edwarda","latitude":51.77041,"longitude":19.51536},{"id":140,"name":"Edwarda-Pomorska","latitude":51.77476,"longitude":19.52129},{"id":141,"name":"Czechosłowacka-Edwarda","latitude":51.77052,"longitude":19.51538},{"id":142,"name":"Czechosłowacka-Mazowiecka","latitude":51.77219,"longitude":19.50907},{"id":143,"name":"Czechosłowacka-Niciarniana","latitude":51.77173,"longitude":19.50592},{"id":144,"name":"Niciarniana-Dw. Łódź Niciarniana","latitude":51.76777,"longitude":19.50661},{"id":145,"name":"Czerwona-Piotrkowska","latitude":51.74571,"longitude":19.45886},{"id":146,"name":"Piotrkowska-pl. Niepodległości","latitude":51.74054,"longitude":19.4626},{"id":148,"name":"Kilińskiego-Poznańska","latitude":51.74247,"longitude":19.47772},{"id":150,"name":"Dąbrowskiego-Kilińskiego","latitude":51.73848,"longitude":19.47786},{"id":151,"name":"Dąbrowskiego-Tatrzańska","latitude":51.73695,"longitude":19.49509},{"id":152,"name":"Śmigłego-Rydza-Zbaraska","latitude":51.74337,"longitude":19.48938},{"id":154,"name":"Tatrzańska-Broniewskiego","latitude":51.73402,"longitude":19.49392},{"id":155,"name":"Dąbrowskiego-Kossaka","latitude":51.73657,"longitude":19.49935},{"id":156,"name":"Dąbrowskiego-Podhalańska","latitude":51.73624,"longitude":19.50306},{"id":157,"name":"Dąbrowskiego-Podhalańska","latitude":51.7361,"longitude":19.50362},{"id":158,"name":"Dąbrowskiego-Dw. Łódź Dąbrowa","latitude":51.73557,"longitude":19.50937},{"id":159,"name":"Dąbrowskiego-Wedmanowej","latitude":51.73544,"longitude":19.51601},{"id":160,"name":"Dąbrowskiego-Lodowa","latitude":51.73487,"longitude":19.52219},{"id":161,"name":"Lodowa-Lodowa 91","latitude":51.73654,"longitude":19.52449},{"id":162,"name":"Tomaszowska-Bławatna","latitude":51.73205,"longitude":19.52997},{"id":163,"name":"Dąbrowskiego-Tomaszowska","latitude":51.73435,"longitude":19.52962},{"id":164,"name":"Dąbrowskiego-Tomaszowska","latitude":51.73496,"longitude":19.52832},{"id":165,"name":"Dąbrowskiego-Lodowa","latitude":51.73515,"longitude":19.52315},{"id":166,"name":"Lodowa-Dąbrowskiego","latitude":51.73371,"longitude":19.52396},{"id":167,"name":"Dąbrowskiego-Wedmanowej","latitude":51.73572,"longitude":19.51583},{"id":168,"name":"Gojawiczyńskiej-Dąbrowskiego","latitude":51.73534,"longitude":19.50508},{"id":169,"name":"Dąbrowskiego-Podhalańska","latitude":51.7363,"longitude":19.50454},{"id":170,"name":"Dw. Łódź Dąbrowa","latitude":51.73633,"longitude":19.50901},{"id":171,"name":"Dąbrowskiego-Podhalańska","latitude":51.73634,"longitude":19.50307},{"id":172,"name":"Dąbrowskiego-Kossaka","latitude":51.73666,"longitude":19.49936},{"id":173,"name":"Dąbrowskiego-Tatrzańska","latitude":51.73712,"longitude":19.49402},{"id":174,"name":"Dąbrowskiego-Kossaka","latitude":51.73678,"longitude":19.49954},{"id":175,"name":"Śmigłego-Rydza-Milionowa","latitude":51.75223,"longitude":19.48965},{"id":176,"name":"Dąbrowskiego-Śmigłego-Rydza","latitude":51.73748,"longitude":19.4899},{"id":179,"name":"Pl. Niepodległości","latitude":51.74041,"longitude":19.46391},{"id":180,"name":"Dąbrowskiego-Rzgowska","latitude":51.7386,"longitude":19.46742},{"id":181,"name":"plac Niepodległości-pl. Niepodległo","latitude":51.73987,"longitude":19.46353},{"id":182,"name":"Pabianicka-Wólczańska","latitude":51.73599,"longitude":19.45877},{"id":183,"name":"Piotrkowska-pl. Niepodległości","latitude":51.74098,"longitude":19.46264},{"id":184,"name":"Pl. Niepodległości","latitude":51.73987,"longitude":19.4634},{"id":185,"name":"Rzgowska-Lecznicza","latitude":51.73456,"longitude":19.4708},{"id":186,"name":"Rzgowska-Lecznicza","latitude":51.73459,"longitude":19.47076},{"id":187,"name":"Starorudzka-Demokratyczna","latitude":51.71009,"longitude":19.43794},{"id":188,"name":"Demokratyczna-Dzwonowa","latitude":51.71064,"longitude":19.4442},{"id":189,"name":"Ekonomiczna-Starorudzka","latitude":51.70678,"longitude":19.4397},{"id":190,"name":"Demokratyczna-Matowa","latitude":51.71147,"longitude":19.45082},{"id":191,"name":"Demokratyczna-Demokratyczna 117","latitude":51.71184,"longitude":19.45898},{"id":192,"name":"Demokratyczna-Bartoszewskiego","latitude":51.71171,"longitude":19.46349},{"id":193,"name":"Demokratyczna-Bartoszewskiego","latitude":51.71191,"longitude":19.4596},{"id":194,"name":"Demokratyczna-Matowa","latitude":51.71144,"longitude":19.45016},{"id":195,"name":"Demokratyczna-Dzwonowa","latitude":51.71083,"longitude":19.4453},{"id":196,"name":"Demokratyczna-Starorudzka","latitude":51.70983,"longitude":19.43738},{"id":197,"name":"Gombrowicza-Pabianicka","latitude":51.7132,"longitude":19.43187},{"id":198,"name":"Dolna-Łagiewnicka","latitude":51.79112,"longitude":19.45399},{"id":199,"name":"Łagiewnicka-Kowalska","latitude":51.79529,"longitude":19.45554},{"id":200,"name":"Dolna-Łagiewnicka","latitude":51.79119,"longitude":19.45399},{"id":201,"name":"Zgierska-Dolna","latitude":51.78996,"longitude":19.44915},{"id":202,"name":"DK nr 71-Łagiewniki Nowe","latitude":51.85113,"longitude":19.46543},{"id":203,"name":"DK nr 71-Przyklasztorze","latitude":51.85359,"longitude":19.47332},{"id":204,"name":"DK nr 71-Łagiewniki Nowe","latitude":51.85082,"longitude":19.4641},{"id":205,"name":"Secesyjna","latitude":51.84796,"longitude":19.46062},{"id":206,"name":"Drewnowska-Okrzei","latitude":51.78127,"longitude":19.42937},{"id":207,"name":"Drewnowska-Karskiego","latitude":51.78064,"longitude":19.43721},{"id":208,"name":"Drewnowska-Piwna","latitude":51.78108,"longitude":19.44308},{"id":209,"name":"Zachodnia-Legionów","latitude":51.77753,"longitude":19.45171},{"id":210,"name":"Drewnowska-Zachodnia","latitude":51.78209,"longitude":19.44996},{"id":211,"name":"Drewnowska-Piwna","latitude":51.78136,"longitude":19.44354},{"id":212,"name":"Drewnowska-Karskiego","latitude":51.78082,"longitude":19.43671},{"id":213,"name":"Drewnowska-Kasprzaka","latitude":51.78127,"longitude":19.42721},{"id":214,"name":"Kasprzaka-Tybury","latitude":51.78454,"longitude":19.42642},{"id":215,"name":"Bionanopark","latitude":51.71852,"longitude":19.41194},{"id":216,"name":"Dubois-Pusta","latitude":51.71991,"longitude":19.41546},{"id":217,"name":"Dubois-Hoffmanowej","latitude":51.71858,"longitude":19.42306},{"id":218,"name":"Dubois-Pabianicka","latitude":51.7156,"longitude":19.43185},{"id":219,"name":"Rudzka-Pabianicka","latitude":51.71055,"longitude":19.42893},{"id":220,"name":"Pabianicka-3 Maja","latitude":51.71862,"longitude":19.43784},{"id":221,"name":"Pabianicka-Dubois","latitude":51.7155,"longitude":19.43396},{"id":222,"name":"Pabianicka-Odrzańska","latitude":51.71163,"longitude":19.42858},{"id":223,"name":"Pabianicka-Rudzka","latitude":51.71143,"longitude":19.42909},{"id":224,"name":"Dubois-Pabianicka","latitude":51.7154,"longitude":19.43236},{"id":225,"name":"Dubois-Hoffmanowej","latitude":51.7184,"longitude":19.4238},{"id":226,"name":"Pokładowa-Świętojańska","latitude":51.71926,"longitude":19.43182},{"id":227,"name":"Dubois-Pusta","latitude":51.72026,"longitude":19.41617},{"id":229,"name":"Obr.Westerplatte-Organizacji WiN","latitude":51.78855,"longitude":19.46793},{"id":231,"name":"Bałucki Rynek-Bałucki Rynek","latitude":51.78756,"longitude":19.45374},{"id":234,"name":"Pomorska-CKD szpital","latitude":51.77741,"longitude":19.50258},{"id":235,"name":"Telefoniczna pętla","latitude":51.78134,"longitude":19.50673},{"id":236,"name":"Pomorska-CKD szpital","latitude":51.77745,"longitude":19.50247},{"id":237,"name":"Pomorska-Konstytucyjna","latitude":51.77743,"longitude":19.49724},{"id":238,"name":"Pomorska-Kasprowy Wierch","latitude":51.77355,"longitude":19.53446},{"id":239,"name":"Krokusowa-Zrębowa","latitude":51.777,"longitude":19.52244},{"id":240,"name":"Edwarda-Pomorska","latitude":51.77461,"longitude":19.52098},{"id":241,"name":"Elektronowa-Obywatelska","latitude":51.73814,"longitude":19.42518},{"id":242,"name":"Obywatelska-Elektronowa","latitude":51.73712,"longitude":19.42755},{"id":243,"name":"Pienista-Obywatelska","latitude":51.74063,"longitude":19.41683},{"id":244,"name":"Waltera-Janke-Maratońska","latitude":51.74436,"longitude":19.4211},{"id":246,"name":"Elektronowa-Zakłady Mięsne","latitude":51.74156,"longitude":19.42649},{"id":247,"name":"Fabryczna-Targowa","latitude":51.75616,"longitude":19.47415},{"id":248,"name":"Fabryczna-Przędzalniana","latitude":51.75754,"longitude":19.48135},{"id":249,"name":"Przędzalniana-Tymienieckiego","latitude":51.75352,"longitude":19.48437},{"id":250,"name":"Fabryczna-Przędzalniana","latitude":51.75761,"longitude":19.48117},{"id":251,"name":"Fabryczna-Kilińskiego","latitude":51.75581,"longitude":19.47178},{"id":252,"name":"Śląska-Kruczkowskiego","latitude":51.72788,"longitude":19.49886},{"id":253,"name":"Felińskiego-Kadłubka","latitude":51.73228,"longitude":19.50077},{"id":254,"name":"Felińskiego-Gojawiczyńskiej","latitude":51.7323,"longitude":19.50382},{"id":255,"name":"Gojawiczyńskiej-Dąbrowskiego","latitude":51.735,"longitude":19.50508},{"id":256,"name":"Felińskiego-Kadłubka","latitude":51.73231,"longitude":19.50051},{"id":257,"name":"Felińskiego-Kruczkowskiego","latitude":51.7323,"longitude":19.49787},{"id":258,"name":"DK nr 71-Rzemieślnicza","latitude":51.85615,"longitude":19.48136},{"id":259,"name":"DK nr 71-Przyklasztorze","latitude":51.85344,"longitude":19.47244},{"id":260,"name":"Skotniki","latitude":51.85877,"longitude":19.49095},{"id":261,"name":"DK nr 71-Rzemieślnicza","latitude":51.85607,"longitude":19.48072},{"id":262,"name":"Św. Franciszka-Czahary","latitude":51.72708,"longitude":19.42278},{"id":263,"name":"Czahary-Prądzyńskiego","latitude":51.72366,"longitude":19.42316},{"id":264,"name":"Św. Franciszka-Zenitowa","latitude":51.72706,"longitude":19.43146},{"id":265,"name":"Franciszkańska-Wojska Polskiego","latitude":51.78436,"longitude":19.46039},{"id":266,"name":"Wojska Polskiego-Marynarska","latitude":51.78545,"longitude":19.46466},{"id":267,"name":"pl. Kościelny","latitude":51.78356,"longitude":19.45374},{"id":268,"name":"Franciszkańska-Wojska Polskiego","latitude":51.78431,"longitude":19.46053},{"id":269,"name":"Wojska Polskiego-Marynarska","latitude":51.78536,"longitude":19.46461},{"id":270,"name":"Franciszkańska-Północna","latitude":51.77994,"longitude":19.46115},{"id":271,"name":"Kilińskiego-Pomorska","latitude":51.77754,"longitude":19.46177},{"id":272,"name":"Północna-Nowomiejska","latitude":51.77899,"longitude":19.45468},{"id":273,"name":"Franciszkańska-Północna","latitude":51.77996,"longitude":19.46127},{"id":274,"name":"Północna-Nowomiejska","latitude":51.77908,"longitude":19.45547},{"id":275,"name":"Gajcego-Gajcego 121","latitude":51.75275,"longitude":19.63065},{"id":277,"name":"Gajcego-Gajcego 121","latitude":51.75242,"longitude":19.63002},{"id":278,"name":"Rataja-Gajcego","latitude":51.74882,"longitude":19.62289},{"id":279,"name":"Gdańska-Skłodowskiej-Curie","latitude":51.76399,"longitude":19.45032},{"id":280,"name":"Gdańska-Zielona","latitude":51.76971,"longitude":19.44905},{"id":281,"name":"Gdańska-1 Maja","latitude":51.77286,"longitude":19.44844},{"id":282,"name":"Zielona/Kościuszki","latitude":51.77027,"longitude":19.45282},{"id":283,"name":"Gdańska-Legionów","latitude":51.77585,"longitude":19.44781},{"id":284,"name":"Legionów-Zachodnia","latitude":51.77647,"longitude":19.45166},{"id":285,"name":"Legionów-Cmentarna","latitude":51.77493,"longitude":19.44298},{"id":286,"name":"Gdańska-1 Maja","latitude":51.77332,"longitude":19.44814},{"id":287,"name":"Gdańska-Zielona","latitude":51.77054,"longitude":19.44872},{"id":288,"name":"Gdańska-Struga","latitude":51.76516,"longitude":19.44986},{"id":289,"name":"Kopernika-Żeromskiego","latitude":51.76238,"longitude":19.44844},{"id":290,"name":"Zbocze-Giewont","latitude":51.77869,"longitude":19.52823},{"id":291,"name":"Telefoniczna-Pieniny","latitude":51.78295,"longitude":19.52546},{"id":292,"name":"Wedmanowej-Dąbrowskiego","latitude":51.735,"longitude":19.51509},{"id":293,"name":"Dw. Łódź Dąbrowa","latitude":51.73658,"longitude":19.50964},{"id":294,"name":"Felińskiego-Gojawiczyńskiej","latitude":51.73261,"longitude":19.50373},{"id":295,"name":"Hipoteczna-Olsztyńska","latitude":51.79495,"longitude":19.43219},{"id":296,"name":"Kniaziewicza-Kalinowa","latitude":51.79931,"longitude":19.43418},{"id":297,"name":"Pojezierska-Sierakowskiego","latitude":51.7978,"longitude":19.43667},{"id":298,"name":"Hipoteczna-Olsztyńska","latitude":51.79552,"longitude":19.43212},{"id":299,"name":"Hipoteczna-Limanowskiego","latitude":51.79086,"longitude":19.43032},{"id":300,"name":"Kasprzaka-Tybury","latitude":51.78442,"longitude":19.42626},{"id":301,"name":"Lutomierska-Klonowa","latitude":51.78823,"longitude":19.42727},{"id":302,"name":"Inflancka-r. Powstańców 1863r.","latitude":51.80082,"longitude":19.45829},{"id":303,"name":"Marysińska-Inflancka","latitude":51.79948,"longitude":19.46564},{"id":304,"name":"Inflancka-Marysińska","latitude":51.80053,"longitude":19.46639},{"id":305,"name":"Inflancka-Gibalskiego","latitude":51.80021,"longitude":19.47246},{"id":306,"name":"Zagajnikowa-Inflancka","latitude":51.79902,"longitude":19.47673},{"id":307,"name":"Strykowska-Inflancka","latitude":51.7976,"longitude":19.48761},{"id":308,"name":"Wycieczkowa-Strykowska","latitude":51.80219,"longitude":19.48849},{"id":309,"name":"Inflancka-Gibalskiego","latitude":51.80052,"longitude":19.47245},{"id":310,"name":"Inflancka-Marysińska","latitude":51.80075,"longitude":19.46537},{"id":311,"name":"Inflancka-r. Powstańców 1863r.","latitude":51.801,"longitude":19.45839},{"id":313,"name":"r. Powstańców 1863r.","latitude":51.80129,"longitude":19.45918},{"id":314,"name":"Julianowska-Żarnowcowa","latitude":51.79966,"longitude":19.45138},{"id":315,"name":"Łagiewnicka-rondo Powstańców 1863r.","latitude":51.80152,"longitude":19.45778},{"id":316,"name":"Janosika-Pszczyńska","latitude":51.77938,"longitude":19.52179},{"id":317,"name":"Janosika-Telefoniczna","latitude":51.78307,"longitude":19.52242},{"id":318,"name":"Janosika-Wyżynna","latitude":51.78789,"longitude":19.52369},{"id":319,"name":"Janosika-Powstańców Śląskich","latitude":51.79199,"longitude":19.52439},{"id":320,"name":"Janosika-Wyżynna","latitude":51.78777,"longitude":19.52347},{"id":321,"name":"Janosika-Telefoniczna","latitude":51.7829,"longitude":19.52227},{"id":322,"name":"Telefoniczna-Weselna","latitude":51.78325,"longitude":19.51988},{"id":323,"name":"Janosika-Pszczyńska","latitude":51.77931,"longitude":19.52165},{"id":324,"name":"Krokusowa-Zrębowa","latitude":51.77735,"longitude":19.52243},{"id":325,"name":"Jaracza-Wierzbowa","latitude":51.77464,"longitude":19.47784},{"id":327,"name":"Sterlinga-Pomorska","latitude":51.77743,"longitude":19.46891},{"id":328,"name":"Jaracza-P.O.W.","latitude":51.77373,"longitude":19.46713},{"id":329,"name":"Jaracza-Kilińskiego","latitude":51.77327,"longitude":19.46195},{"id":330,"name":"Jaracza-Piotrkowska","latitude":51.77278,"longitude":19.45606},{"id":331,"name":"Więckowskiego-Gdańska","latitude":51.77205,"longitude":19.44804},{"id":332,"name":"Zachodnia-Legionów","latitude":51.77558,"longitude":19.45257},{"id":333,"name":"Józefów-Rzgowska","latitude":51.70693,"longitude":19.48906},{"id":334,"name":"Józefów-Nowe Górki","latitude":51.70647,"longitude":19.49566},{"id":335,"name":"Józefów-Józefów 60","latitude":51.70637,"longitude":19.50475},{"id":336,"name":"Józefów-Bieszczadzka","latitude":51.70639,"longitude":19.51036},{"id":337,"name":"Józefów-Józefów 60","latitude":51.70638,"longitude":19.50504},{"id":338,"name":"Józefów-Nowe Górki","latitude":51.70652,"longitude":19.49626},{"id":339,"name":"Józefów-Rzgowska","latitude":51.70711,"longitude":19.48758},{"id":340,"name":"Rzgowska-Paradna","latitude":51.70865,"longitude":19.48774},{"id":341,"name":"Julianowska-Zgierska","latitude":51.79765,"longitude":19.44553},{"id":342,"name":"Julianowska-Żarnowcowa","latitude":51.79974,"longitude":19.45254},{"id":344,"name":"Julianowska-Zgierska","latitude":51.79785,"longitude":19.44497},{"id":345,"name":"Pojezierska-Sierakowskiego","latitude":51.79781,"longitude":19.43796},{"id":346,"name":"Kaczeńcowa-Lniana","latitude":51.79728,"longitude":19.38626},{"id":347,"name":"Kaczeńcowa-Kaczeńcowa 16","latitude":51.80723,"longitude":19.39063},{"id":348,"name":"Kaczeńcowa-św. Teresy","latitude":51.80867,"longitude":19.39147},{"id":349,"name":"Św. Teresy-Kaczeńcowa","latitude":51.80982,"longitude":19.38981},{"id":350,"name":"Kaczeńcowa-Kaczeńcowa 16","latitude":51.80673,"longitude":19.39009},{"id":351,"name":"Kaczeńcowa-Aleksandrowska","latitude":51.80002,"longitude":19.38735},{"id":352,"name":"Kaczeńcowa-Lniana","latitude":51.79779,"longitude":19.38631},{"id":353,"name":"Rojna-Kaczeńcowa","latitude":51.79357,"longitude":19.38576},{"id":354,"name":"Ekonomiczna-Żwawa","latitude":51.70752,"longitude":19.44558},{"id":355,"name":"Kniaziewicza-Kalinowa","latitude":51.799,"longitude":19.43369},{"id":356,"name":"Pojezierska-Grunwaldzka","latitude":51.7985,"longitude":19.43156},{"id":357,"name":"Ekonomiczna-Kwaterunkowa","latitude":51.70819,"longitude":19.4509},{"id":358,"name":"Ekonomiczna-Żwawa","latitude":51.70766,"longitude":19.4466},{"id":359,"name":"Ekonomiczna-Starorudzka","latitude":51.70676,"longitude":19.4397},{"id":360,"name":"Ekonomiczna-Kwaterunkowa","latitude":51.70828,"longitude":19.45125},{"id":361,"name":"Ekonomiczna-Graniczna","latitude":51.70877,"longitude":19.45563},{"id":363,"name":"Ekonomiczna-Graniczna","latitude":51.70872,"longitude":19.45495},{"id":364,"name":"Karolewska-Wileńska","latitude":51.75254,"longitude":19.42539},{"id":365,"name":"Kasprzaka-Legionów","latitude":51.77048,"longitude":19.42904},{"id":366,"name":"Kasprzaka-Srebrzyńska","latitude":51.77398,"longitude":19.42745},{"id":367,"name":"Kasprzaka-Drewnowska","latitude":51.78076,"longitude":19.42696},{"id":368,"name":"Unii Lubelskiej-Praussa","latitude":51.77669,"longitude":19.41512},{"id":369,"name":"Tybury-Odolanowska","latitude":51.78498,"longitude":19.43174},{"id":370,"name":"Klonowa-Limanowskiego","latitude":51.79003,"longitude":19.43002},{"id":371,"name":"Kasprzaka-Drewnowska","latitude":51.7802,"longitude":19.42688},{"id":372,"name":"Kasprzaka-Srebrzyńska","latitude":51.77461,"longitude":19.42717},{"id":373,"name":"Kasprzaka-Legionów","latitude":51.77046,"longitude":19.42878},{"id":374,"name":"1 Maja-Żeligowskiego","latitude":51.77065,"longitude":19.4371},{"id":375,"name":"Dw. Łódź Chojny","latitude":51.72786,"longitude":19.47945},{"id":376,"name":"Dw. Łódź Chojny","latitude":51.72773,"longitude":19.48},{"id":377,"name":"Kilińskiego-Broniewskiego","latitude":51.73103,"longitude":19.47915},{"id":378,"name":"Kilińskiego-Dąbrowskiego","latitude":51.73833,"longitude":19.47883},{"id":379,"name":"Kilińskiego-Przybyszewskiego","latitude":51.74499,"longitude":19.47634},{"id":380,"name":"Kilińskiego-Przybyszewskiego","latitude":51.74438,"longitude":19.47682},{"id":381,"name":"Przybyszewskiego-Brzozowa","latitude":51.74457,"longitude":19.47081},{"id":382,"name":"Kilińskiego-Senatorska","latitude":51.74768,"longitude":19.47503},{"id":383,"name":"Przybyszewskiego-Łęczycka","latitude":51.74691,"longitude":19.48402},{"id":384,"name":"Kilińskiego-Senatorska","latitude":51.7477,"longitude":19.4751},{"id":385,"name":"Kilińskiego-Tymienieckiego","latitude":51.75129,"longitude":19.47339},{"id":387,"name":"Kilińskiego-Fabryczna","latitude":51.75517,"longitude":19.47108},{"id":388,"name":"Kilińskiego-Fabryczna","latitude":51.75499,"longitude":19.47144},{"id":389,"name":"Kilińskiego-Piłsudskiego","latitude":51.75944,"longitude":19.46916},{"id":391,"name":"Kilińskiego-Nawrot","latitude":51.76299,"longitude":19.46755},{"id":392,"name":"Piłsudskiego-Sienkiewicza","latitude":51.75986,"longitude":19.46372},{"id":393,"name":"Kilińskiego-Nawrot","latitude":51.76288,"longitude":19.46758},{"id":394,"name":"Kilińskiego-Tuwima","latitude":51.7661,"longitude":19.46591},{"id":395,"name":"Kilińskiego-Tuwima","latitude":51.76611,"longitude":19.46598},{"id":396,"name":"Kilińskiego-Przystanek mBank","latitude":51.76927,"longitude":19.46451},{"id":397,"name":"Tuwima-Sienkiewicza","latitude":51.76588,"longitude":19.46121},{"id":398,"name":"Kilińskiego-Narutowicza","latitude":51.77163,"longitude":19.46327},{"id":399,"name":"Kilińskiego-Rewolucji 1905 r.","latitude":51.7751,"longitude":19.46245},{"id":401,"name":"Kilińskiego-Pomorska","latitude":51.77719,"longitude":19.46206},{"id":402,"name":"Kilińskiego-Północna","latitude":51.77917,"longitude":19.46156},{"id":403,"name":"Pomorska-Sterlinga","latitude":51.77792,"longitude":19.4684},{"id":404,"name":"Pomorska-pl. Wolności","latitude":51.77694,"longitude":19.45575},{"id":405,"name":"Kilińskiego-Rewolucji 1905 r.","latitude":51.77459,"longitude":19.46239},{"id":406,"name":"Kilińskiego-Narutowicza","latitude":51.77174,"longitude":19.4632},{"id":407,"name":"Kilińskiego-Przystanek mBank","latitude":51.76907,"longitude":19.46453},{"id":408,"name":"Zielona/Kościuszki","latitude":51.77046,"longitude":19.45399},{"id":409,"name":"Kilińskiego-Tuwima","latitude":51.76547,"longitude":19.46607},{"id":411,"name":"Piłsudskiego / Kilińskiego","latitude":51.76034,"longitude":19.46735},{"id":412,"name":"Kilińskiego-Piłsudskiego","latitude":51.76066,"longitude":19.46843},{"id":413,"name":"Kilińskiego-Fabryczna","latitude":51.75574,"longitude":19.47093},{"id":414,"name":"Piłsudskiego-Targowa","latitude":51.76063,"longitude":19.47385},{"id":417,"name":"Kilińskiego-Tymienieckiego","latitude":51.75183,"longitude":19.47305},{"id":420,"name":"Kilińskiego-Senatorska","latitude":51.74805,"longitude":19.47472},{"id":421,"name":"Kilińskiego-Senatorska","latitude":51.74815,"longitude":19.47471},{"id":422,"name":"Kilińskiego-Przybyszewskiego","latitude":51.74583,"longitude":19.47583},{"id":423,"name":"Kilińskiego-Przybyszewskiego","latitude":51.7459,"longitude":19.47577},{"id":424,"name":"Kilińskiego-Poznańska","latitude":51.74257,"longitude":19.47754},{"id":425,"name":"Kilińskiego-Poznańska","latitude":51.74262,"longitude":19.47741},{"id":426,"name":"Kilińskiego-Dąbrowskiego","latitude":51.73883,"longitude":19.47858},{"id":427,"name":"Kilińskiego-Dąbrowskiego","latitude":51.73897,"longitude":19.47855},{"id":428,"name":"Kilińskiego-Broniewskiego","latitude":51.73317,"longitude":19.47874},{"id":430,"name":"Kniaziewicza-Brzóski","latitude":51.79992,"longitude":19.4401},{"id":431,"name":"Liściasta-Zgierska","latitude":51.80663,"longitude":19.438},{"id":432,"name":"Sikorskiego-Zgierska","latitude":51.81557,"longitude":19.43573},{"id":433,"name":"Kniaziewicza-Brzóski","latitude":51.79994,"longitude":19.43852},{"id":434,"name":"Kolumny-Wrzecionowa","latitude":51.70873,"longitude":19.52338},{"id":435,"name":"Kolumny-Kolumny 242","latitude":51.70972,"longitude":19.5311},{"id":436,"name":"Kolumny-Cierniówki","latitude":51.71047,"longitude":19.53715},{"id":437,"name":"Kolumny-Tomaszowska","latitude":51.71171,"longitude":19.54355},{"id":438,"name":"Tomaszowska-Małego Rycerza","latitude":51.71686,"longitude":19.5416},{"id":439,"name":"Kolumny-Kalinowskiego","latitude":51.71235,"longitude":19.55146},{"id":440,"name":"Kolumny-Morenowa","latitude":51.71485,"longitude":19.55615},{"id":441,"name":"Kolumny-Mahoniowa","latitude":51.71634,"longitude":19.56374},{"id":442,"name":"Kolumny-Ogrodnicza","latitude":51.7145,"longitude":19.57411},{"id":443,"name":"Kolumny-Mozaikowa","latitude":51.71179,"longitude":19.58561},{"id":444,"name":"Kolumny-Platanowa","latitude":51.70955,"longitude":19.59735},{"id":445,"name":"Kolumny-Autostrada A1","latitude":51.70689,"longitude":19.60427},{"id":446,"name":"Kolumny-Czajewskiego","latitude":51.70422,"longitude":19.61155},{"id":449,"name":"Kolumny-Czajewskiego","latitude":51.70464,"longitude":19.61089},{"id":450,"name":"Kolumny-Autostrada A1","latitude":51.70687,"longitude":19.60436},{"id":451,"name":"Kolumny-Platanowa","latitude":51.70977,"longitude":19.59642},{"id":452,"name":"Kolumny-Mozaikowa","latitude":51.71211,"longitude":19.58459},{"id":453,"name":"Kolumny-Ogrodnicza","latitude":51.71474,"longitude":19.57351},{"id":454,"name":"Kolumny-Mahoniowa","latitude":51.71639,"longitude":19.56348},{"id":455,"name":"Kolumny-Morenowa","latitude":51.71501,"longitude":19.55616},{"id":456,"name":"Kolumny-Kalinowskiego","latitude":51.71233,"longitude":19.55054},{"id":457,"name":"Kolumny-Tomaszowska","latitude":51.71175,"longitude":19.54338},{"id":458,"name":"Kolumny-Cierniówki","latitude":51.71057,"longitude":19.53715},{"id":459,"name":"Kolumny-Kolumny 242","latitude":51.70992,"longitude":19.53192},{"id":460,"name":"Kolumny-Wrzecionowa","latitude":51.70899,"longitude":19.52476},{"id":461,"name":"Kolumny-Bronisin","latitude":51.70814,"longitude":19.51781},{"id":462,"name":"Dw. Łódź Widzew","latitude":51.76257,"longitude":19.543},{"id":463,"name":"Puszkina-Rondo Inwalidów","latitude":51.7619,"longitude":19.53666},{"id":464,"name":"Krzemieniecka-Konstantynowska","latitude":51.76176,"longitude":19.40857},{"id":465,"name":"Retkińska-Krzemieniecka","latitude":51.7573,"longitude":19.41418},{"id":466,"name":"Krzemieniecka-Retkińska","latitude":51.75746,"longitude":19.41597},{"id":467,"name":"Konstantynowska-ZOO","latitude":51.76405,"longitude":19.41212},{"id":468,"name":"Konstantynowska-Unii Lubelskiej","latitude":51.76709,"longitude":19.42069},{"id":469,"name":"Legionów-Włókniarzy","latitude":51.76933,"longitude":19.42706},{"id":470,"name":"Konstantynowska-Unii Lubelskiej","latitude":51.76715,"longitude":19.42059},{"id":471,"name":"Konstantynowska-ZOO","latitude":51.76432,"longitude":19.41271},{"id":472,"name":"Konstantynowska-Krakowska","latitude":51.76307,"longitude":19.40915},{"id":473,"name":"Zdrowie","latitude":51.76509,"longitude":19.40623},{"id":474,"name":"Dw. Łódź Widzew","latitude":51.76255,"longitude":19.54166},{"id":475,"name":"Dw. Łódź Widzew","latitude":51.76263,"longitude":19.5425},{"id":476,"name":"Konstytucyjna-Małachowskiego","latitude":51.77159,"longitude":19.49918},{"id":477,"name":"Narutowicza-Radiostacja","latitude":51.77422,"longitude":19.49533},{"id":478,"name":"Pomorska-Konstytucyjna","latitude":51.77736,"longitude":19.49713},{"id":479,"name":"Kopcińskiego-Tuwima","latitude":51.76743,"longitude":19.48397},{"id":480,"name":"Kopcińskiego-Narutowicza","latitude":51.77256,"longitude":19.48288},{"id":481,"name":"Kopcińskiego-Tuwima","latitude":51.76739,"longitude":19.48421},{"id":482,"name":"Kopcińskiego-Narutowicza","latitude":51.77187,"longitude":19.48327},{"id":483,"name":"Narutowicza-Matejki (kampus UŁ)","latitude":51.77343,"longitude":19.48841},{"id":484,"name":"Narutowicza-Tramwajowa","latitude":51.77252,"longitude":19.47689},{"id":485,"name":"Narutowicza-Matejki (kampus UŁ)","latitude":51.77342,"longitude":19.48829},{"id":486,"name":"Kopcińskiego-Rondo Solidarności","latitude":51.778,"longitude":19.48185},{"id":487,"name":"Palki-Źródłowa","latitude":51.78146,"longitude":19.4832},{"id":488,"name":"Kopcińskiego-Narutowicza","latitude":51.77194,"longitude":19.48268},{"id":489,"name":"Kopcińskiego-Tuwima","latitude":51.76725,"longitude":19.48363},{"id":490,"name":"Kopcińskiego-Tuwima","latitude":51.76727,"longitude":19.48388},{"id":491,"name":"Śmigłego-Rydza-Piłsudskiego","latitude":51.76097,"longitude":19.48554},{"id":492,"name":"Tuwima-Kopcińskiego","latitude":51.7678,"longitude":19.48382},{"id":493,"name":"Śmigłego-Rydza-Piłsudskiego","latitude":51.76054,"longitude":19.48572},{"id":494,"name":"Przędzalniana-Nawrot","latitude":51.76488,"longitude":19.48048},{"id":495,"name":"Piłsudskiego-Śmigłego-Rydza","latitude":51.76153,"longitude":19.48711},{"id":496,"name":"Piłsudskiego-Sarnia","latitude":51.76212,"longitude":19.49247},{"id":497,"name":"Śmigłego-Rydza-Zbiorcza","latitude":51.75814,"longitude":19.48798},{"id":498,"name":"Piłsudskiego-Przędzalniana","latitude":51.76112,"longitude":19.48027},{"id":499,"name":"Puszkina-Chmielowskiego","latitude":51.75844,"longitude":19.53568},{"id":500,"name":"Rokicińska-Maszynowa","latitude":51.76248,"longitude":19.52861},{"id":501,"name":"Kopernika-Tobaco Park","latitude":51.75778,"longitude":19.43672},{"id":502,"name":"Kopernika-Łąkowa","latitude":51.75987,"longitude":19.44236},{"id":503,"name":"Kopernika-Żeromskiego","latitude":51.76175,"longitude":19.44702},{"id":504,"name":"Żeromskiego-Mickiewicza","latitude":51.75869,"longitude":19.44821},{"id":505,"name":"Kopernika-Łąkowa","latitude":51.76034,"longitude":19.4431},{"id":506,"name":"Kopernika-Tobaco Park","latitude":51.75826,"longitude":19.43769},{"id":507,"name":"Bandurskiego-Dw. Łódź Kaliska","latitude":51.7558,"longitude":19.4324},{"id":508,"name":"Włókniarzy-Karolewska (Dw. Łódź Kal","latitude":51.75825,"longitude":19.4335},{"id":509,"name":"Mickiewicza-Żeromskiego","latitude":51.75803,"longitude":19.44914},{"id":510,"name":"Służbowa-Dw. Łódź Widzew","latitude":51.76204,"longitude":19.54306},{"id":511,"name":"Augustów-Rokicińska","latitude":51.75916,"longitude":19.5543},{"id":512,"name":"Służbowa-Dw. Łódź Widzew","latitude":51.76228,"longitude":19.54228},{"id":513,"name":"Kosynierów Gdyńskich-Wczesna","latitude":51.71552,"longitude":19.47551},{"id":514,"name":"Kosynierów Gdyńskich-Królewska","latitude":51.71365,"longitude":19.48169},{"id":515,"name":"Rzgowska-św. Wojciecha","latitude":51.71406,"longitude":19.48682},{"id":516,"name":"Kosynierów Gdyńskich-Królewska","latitude":51.7138,"longitude":19.48134},{"id":517,"name":"Kosynierów Gdyńskich-Wczesna","latitude":51.7153,"longitude":19.47615},{"id":518,"name":"Kosynierów Gdyńskich-Łazowskiego","latitude":51.71701,"longitude":19.4719},{"id":519,"name":"Kosynierów Gdyńskich-Trybunalska","latitude":51.71818,"longitude":19.46901},{"id":520,"name":"Trybunalska-Kwietniowa","latitude":51.7141,"longitude":19.46612},{"id":522,"name":"Kościuszki-Zamenhofa","latitude":51.76181,"longitude":19.45525},{"id":523,"name":"Mickiewicza-Żeromskiego","latitude":51.75813,"longitude":19.4491},{"id":524,"name":"Kościuszki-Mickiewicza","latitude":51.76006,"longitude":19.45569},{"id":525,"name":"Struga-Gdańska","latitude":51.76496,"longitude":19.44948},{"id":526,"name":"Kościuszki-Struga","latitude":51.76629,"longitude":19.4544},{"id":527,"name":"Kościuszki-Struga","latitude":51.7657,"longitude":19.45437},{"id":528,"name":"Kościuszki-Zielona","latitude":51.76978,"longitude":19.4535},{"id":529,"name":"Zachodnia-Zielona","latitude":51.77075,"longitude":19.45358},{"id":530,"name":"Kościuszki-Zielona","latitude":51.76947,"longitude":19.45363},{"id":531,"name":"Zachodnia-Więckowskiego","latitude":51.77274,"longitude":19.453},{"id":532,"name":"Zielona-Piotrkowska","latitude":51.77053,"longitude":19.45577},{"id":533,"name":"Zielona/Gdańska","latitude":51.77007,"longitude":19.44964},{"id":534,"name":"Kościuszki-Zielona","latitude":51.76967,"longitude":19.45324},{"id":535,"name":"Kościuszki-Struga","latitude":51.76623,"longitude":19.45405},{"id":538,"name":"Zamenhofa-Piotrkowska","latitude":51.76215,"longitude":19.45607},{"id":539,"name":"Kościuszki-Mickiewicza","latitude":51.75854,"longitude":19.45574},{"id":540,"name":"Kościuszki-Struga","latitude":51.7649,"longitude":19.45443},{"id":541,"name":"Kościuszki-Zamenhofa","latitude":51.76239,"longitude":19.45502},{"id":543,"name":"Piotrkowska Centrum","latitude":51.75931,"longitude":19.45788},{"id":544,"name":"Piotrkowska-Żwirki","latitude":51.75613,"longitude":19.45919},{"id":545,"name":"Kościuszki-Radwańska","latitude":51.75311,"longitude":19.45691},{"id":546,"name":"Piotrkowska-Brzeźna","latitude":51.75301,"longitude":19.45976},{"id":547,"name":"Krakowska-Minerska","latitude":51.76487,"longitude":19.40468},{"id":548,"name":"Krakowska-Michałowicza","latitude":51.77005,"longitude":19.40178},{"id":549,"name":"Krakowska-Biegunowa","latitude":51.77402,"longitude":19.39923},{"id":550,"name":"Krakowska-Siewna","latitude":51.77877,"longitude":19.39938},{"id":551,"name":"Złotno-Kwiatowa","latitude":51.77961,"longitude":19.39342},{"id":552,"name":"Traktorowa-Rąbieńska","latitude":51.78351,"longitude":19.39187},{"id":553,"name":"Krakowska-Biegunowa","latitude":51.77517,"longitude":19.39861},{"id":554,"name":"Srebrzyńska-cm. Mania","latitude":51.77582,"longitude":19.40514},{"id":555,"name":"Krakowska-Michałowicza","latitude":51.76959,"longitude":19.40179},{"id":556,"name":"Solec-cm. Mania","latitude":51.77608,"longitude":19.40529},{"id":557,"name":"Krakowska-Minerska","latitude":51.76552,"longitude":19.40395},{"id":558,"name":"Rokicińska-Augustów","latitude":51.75714,"longitude":19.55446},{"id":559,"name":"Augustów-Rokicińska","latitude":51.7585,"longitude":19.55411},{"id":560,"name":"Krzemieniecka-Kowieńska","latitude":51.75631,"longitude":19.42067},{"id":561,"name":"Bandurskiego-Atlas Arena","latitude":51.75554,"longitude":19.42673},{"id":562,"name":"Bandurskiego-Wileńska","latitude":51.7539,"longitude":19.42123},{"id":563,"name":"Krzemieniecka-Kowieńska","latitude":51.7563,"longitude":19.4219},{"id":564,"name":"Krzemieniecka-Retkińska","latitude":51.75838,"longitude":19.41343},{"id":565,"name":"Krakowska-Konstantynowska","latitude":51.76296,"longitude":19.40719},{"id":566,"name":"Książąt Polskich-Zakładowa","latitude":51.74407,"longitude":19.55188},{"id":567,"name":"Zakładowa-Olechowska","latitude":51.74294,"longitude":19.55449},{"id":568,"name":"Kurczaki-Rzgowska","latitude":51.7179,"longitude":19.48614},{"id":569,"name":"Kurczaki-Socjalna","latitude":51.71849,"longitude":19.49038},{"id":570,"name":"Kurczaki-cm. Kurczaki","latitude":51.71926,"longitude":19.49589},{"id":571,"name":"Komorniki","latitude":51.72006,"longitude":19.50363},{"id":572,"name":"Kurczaki-cm. Kurczaki","latitude":51.71944,"longitude":19.49652},{"id":573,"name":"Kurczaki-Socjalna","latitude":51.71867,"longitude":19.49133},{"id":574,"name":"Rzgowska-Kurczaki","latitude":51.71861,"longitude":19.48513},{"id":575,"name":"Kusocińskiego","latitude":51.74772,"longitude":19.3833},{"id":576,"name":"Popiełuszki-Wyszyńskiego","latitude":51.74189,"longitude":19.38283},{"id":577,"name":"Kusocińskiego","latitude":51.74773,"longitude":19.3836},{"id":578,"name":"Kusocińskiego","latitude":51.74803,"longitude":19.3837},{"id":579,"name":"Kusocińskiego-Popiełuszki","latitude":51.74804,"longitude":19.38523},{"id":580,"name":"Kusocińskiego-Armii Krajowej","latitude":51.75013,"longitude":19.39231},{"id":581,"name":"Kusocińskiego-Babickiego","latitude":51.75224,"longitude":19.40016},{"id":582,"name":"Kusocińskiego-Popiełuszki","latitude":51.74762,"longitude":19.38386},{"id":583,"name":"Limanowskiego-Pułaskiego","latitude":51.79265,"longitude":19.41795},{"id":584,"name":"Włókniarzy-Wielkopolska","latitude":51.79025,"longitude":19.42097},{"id":585,"name":"Limanowskiego-Mokra","latitude":51.79121,"longitude":19.4252},{"id":586,"name":"Limanowskiego-Klonowa","latitude":51.79038,"longitude":19.42928},{"id":587,"name":"Limanowskiego-Sierakowskiego","latitude":51.78922,"longitude":19.43565},{"id":588,"name":"Limanowskiego-Piwna","latitude":51.78779,"longitude":19.44307},{"id":589,"name":"Limanowskiego-Zachodnia","latitude":51.78712,"longitude":19.44876},{"id":590,"name":"Zachodnia-Lutomierska","latitude":51.78333,"longitude":19.45024},{"id":591,"name":"Limanowskiego-Bałucki Rynek","latitude":51.78666,"longitude":19.45138},{"id":592,"name":"Limanowskiego-Piwna","latitude":51.7877,"longitude":19.4436},{"id":593,"name":"Limanowskiego-Sierakowskiego","latitude":51.78918,"longitude":19.43612},{"id":594,"name":"Limanowskiego-Klonowa","latitude":51.79036,"longitude":19.43039},{"id":595,"name":"Limanowskiego-Mokra","latitude":51.79118,"longitude":19.42561},{"id":596,"name":"Limanowskiego-Pułaskiego","latitude":51.79271,"longitude":19.418},{"id":597,"name":"Limanowskiego-Woronicza","latitude":51.79426,"longitude":19.41051},{"id":598,"name":"Dw. Łódź Żabieniec","latitude":51.79398,"longitude":19.40826},{"id":599,"name":"11 Listopada-Jantarowa","latitude":51.81574,"longitude":19.42252},{"id":602,"name":"11 Listopada","latitude":51.81783,"longitude":19.4188},{"id":603,"name":"11 Listopada","latitude":51.81761,"longitude":19.41908},{"id":604,"name":"11 Listopada-Jantarowa","latitude":51.8154,"longitude":19.42271},{"id":605,"name":"Włókniarzy-Liściasta","latitude":51.81011,"longitude":19.42513},{"id":606,"name":"Liściasta-Liściasta 72","latitude":51.80833,"longitude":19.42884},{"id":607,"name":"Liściasta-Czereśniowa","latitude":51.80709,"longitude":19.43524},{"id":608,"name":"Liściasta-Zgierska","latitude":51.80635,"longitude":19.4388},{"id":609,"name":"Liściasta-Czereśniowa","latitude":51.80743,"longitude":19.43401},{"id":610,"name":"Liściasta-Liściasta 72","latitude":51.80846,"longitude":19.42895},{"id":611,"name":"Włókniarzy-Liściasta","latitude":51.80973,"longitude":19.42576},{"id":612,"name":"Włókniarzy-św. Teresy","latitude":51.80383,"longitude":19.42549},{"id":613,"name":"Lodowa-Ordonówny","latitude":51.72881,"longitude":19.5179},{"id":614,"name":"Lodowa-Lodowa 97","latitude":51.7302,"longitude":19.52419},{"id":615,"name":"Lodowa-Dąbrowskiego","latitude":51.73396,"longitude":19.52422},{"id":616,"name":"Lodowa-Dostawcza","latitude":51.74032,"longitude":19.52417},{"id":617,"name":"Lodowa-Andrzejewskiej","latitude":51.74629,"longitude":19.52249},{"id":618,"name":"Lodowa-cm. Zarzew","latitude":51.74989,"longitude":19.52139},{"id":619,"name":"Przybyszewskiego-Lodowa","latitude":51.75166,"longitude":19.52185},{"id":620,"name":"Lodowa-cm. Zarzew","latitude":51.7494,"longitude":19.52135},{"id":621,"name":"Lodowa-Andrzejewskiej","latitude":51.7461,"longitude":19.52235},{"id":622,"name":"Lodowa-Dostawcza","latitude":51.74,"longitude":19.52413},{"id":623,"name":"Lodowa-Lodowa 91","latitude":51.73728,"longitude":19.52429},{"id":624,"name":"Lodowa-Lodowa 97","latitude":51.73075,"longitude":19.52399},{"id":625,"name":"Lodowa-Ordonówny","latitude":51.72887,"longitude":19.51824},{"id":626,"name":"Wedmanowej-Lodowa","latitude":51.73138,"longitude":19.51256},{"id":627,"name":"Lutomierska-Klonowa","latitude":51.78804,"longitude":19.42771},{"id":628,"name":"Lutomierska-Czarnkowska","latitude":51.78515,"longitude":19.43792},{"id":631,"name":"Lutomierska-Zachodnia","latitude":51.78298,"longitude":19.44959},{"id":633,"name":"Zachodnia-Lutomierska","latitude":51.78334,"longitude":19.45047},{"id":634,"name":"Zachodnia-Lutomierska","latitude":51.78247,"longitude":19.45037},{"id":635,"name":"Lutomierska-Zachodnia","latitude":51.78319,"longitude":19.44932},{"id":636,"name":"Lutomierska-Czarnkowska","latitude":51.78554,"longitude":19.43643},{"id":639,"name":"Tybury-Odolanowska","latitude":51.78527,"longitude":19.43272},{"id":640,"name":"Wielkopolska-Pułaskiego","latitude":51.79062,"longitude":19.41841},{"id":642,"name":"Łagiewnicka-Dolna","latitude":51.79186,"longitude":19.45497},{"id":643,"name":"Łagiewnicka-Kowalska","latitude":51.79526,"longitude":19.45554},{"id":644,"name":"Łagiewnicka-Murarska","latitude":51.79919,"longitude":19.4564},{"id":645,"name":"Łagiewnicka-Murarska","latitude":51.79915,"longitude":19.4564},{"id":646,"name":"Łagiewnicka-Rondo Powstańców 1863r.","latitude":51.80141,"longitude":19.45775},{"id":647,"name":"Warszawska-Irysowa","latitude":51.80289,"longitude":19.46257},{"id":648,"name":"Zamojska-Prądzyńskiego","latitude":51.72292,"longitude":19.43962},{"id":649,"name":"Św. Franciszka-Zwrotnikowa","latitude":51.72688,"longitude":19.43677},{"id":650,"name":"Łagiewnicka-Litewska","latitude":51.80456,"longitude":19.45923},{"id":651,"name":"Łagiewnicka-Morelowa","latitude":51.80844,"longitude":19.45782},{"id":652,"name":"Łagiewnicka-Sowińskiego","latitude":51.81226,"longitude":19.45557},{"id":653,"name":"Sikorskiego-Dw. Łódź Arturówek","latitude":51.81682,"longitude":19.45419},{"id":654,"name":"Łagiewnicka-Dw. Łódź Arturówek","latitude":51.8163,"longitude":19.45509},{"id":655,"name":"Świtezianki-Sikorskiego","latitude":51.81988,"longitude":19.44881},{"id":656,"name":"Sikorskiego-Dw. Łódź Arturówek","latitude":51.81676,"longitude":19.45367},{"id":657,"name":"Łagiewnicka-Sowińskiego","latitude":51.81219,"longitude":19.45521},{"id":658,"name":"Łagiewnicka-Morelowa","latitude":51.80757,"longitude":19.45817},{"id":659,"name":"Łagiewnicka-Litewska","latitude":51.80458,"longitude":19.45888},{"id":660,"name":"Łagiewnicka-rondo Powstańców 1863r.","latitude":51.80135,"longitude":19.45756},{"id":661,"name":"Łagiewnicka-Rondo Powstańców 1863r.","latitude":51.80138,"longitude":19.45761},{"id":662,"name":"Łagiewnicka-Murarska","latitude":51.79913,"longitude":19.45632},{"id":663,"name":"Łagiewnicka-Stefana","latitude":51.7951,"longitude":19.45545},{"id":664,"name":"Łagiewnicka-Stefana","latitude":51.79505,"longitude":19.45545},{"id":665,"name":"Łagiewnicka-Dolna","latitude":51.79093,"longitude":19.45447},{"id":666,"name":"Łaskowice-Nad Dobrzynką","latitude":51.70968,"longitude":19.37042},{"id":667,"name":"Sanitariuszek-Łaskowice","latitude":51.71292,"longitude":19.3661},{"id":668,"name":"Łupkowa-Kobaltowa","latitude":51.81486,"longitude":19.49822},{"id":669,"name":"Strykowska-Herbowa","latitude":51.8124,"longitude":19.5028},{"id":670,"name":"Strykowska-Rogowska","latitude":51.81887,"longitude":19.50615},{"id":671,"name":"Łupkowa-Kobaltowa","latitude":51.81513,"longitude":19.49861},{"id":672,"name":"Warszawska-Wycieczkowa","latitude":51.81348,"longitude":19.48659},{"id":673,"name":"1 Maja-Pogonowskiego","latitude":51.772,"longitude":19.44127},{"id":674,"name":"Żeligowskiego-pl. Hallera","latitude":51.76795,"longitude":19.43866},{"id":675,"name":"Pl. Wolności","latitude":51.77659,"longitude":19.45513},{"id":676,"name":"Żeromskiego-Więckowskiego (LO nr 1)","latitude":51.77225,"longitude":19.44524},{"id":677,"name":"Próchnika-Gdańska","latitude":51.77396,"longitude":19.44724},{"id":678,"name":"Olechowska 22","latitude":51.73041,"longitude":19.53964},{"id":679,"name":"Olechowska-Tomaszowska","latitude":51.72797,"longitude":19.53547},{"id":680,"name":"3 Maja-Morska","latitude":51.71647,"longitude":19.4486},{"id":681,"name":"3 Maja-Świetlicowa","latitude":51.71587,"longitude":19.45249},{"id":682,"name":"Pryncypalna-Mocna","latitude":51.71864,"longitude":19.4601},{"id":683,"name":"3 Maja-Świetlicowa","latitude":51.71594,"longitude":19.45202},{"id":684,"name":"3 Maja-Morska","latitude":51.71674,"longitude":19.44779},{"id":685,"name":"Pabianicka-3 Maja","latitude":51.71877,"longitude":19.43739},{"id":686,"name":"Olechowska 22","latitude":51.73061,"longitude":19.54017},{"id":687,"name":"Olechowska-Olechowska 36","latitude":51.73271,"longitude":19.54366},{"id":688,"name":"Malownicza-Taborowa","latitude":51.75345,"longitude":19.59275},{"id":689,"name":"Malownicza-Gerberowa","latitude":51.75864,"longitude":19.60297},{"id":690,"name":"Malownicza-Rataja","latitude":51.76083,"longitude":19.60717},{"id":691,"name":"Rataja-Słoneczne Zacisze","latitude":51.75417,"longitude":19.61641},{"id":692,"name":"Malownicza-Rataja","latitude":51.76107,"longitude":19.60744},{"id":693,"name":"Malownicza-Gerberowa","latitude":51.75759,"longitude":19.60061},{"id":694,"name":"Malownicza-Taborowa","latitude":51.75332,"longitude":19.59233},{"id":695,"name":"Maratońska-Sanitariuszek","latitude":51.72707,"longitude":19.35266},{"id":696,"name":"Maratońska-Maratońska 172","latitude":51.73029,"longitude":19.35889},{"id":697,"name":"Maratońska-Golfowa","latitude":51.73273,"longitude":19.3681},{"id":698,"name":"Maratońska-Kolarska","latitude":51.73458,"longitude":19.37498},{"id":699,"name":"Maratońska-Gimnastyczna","latitude":51.7358,"longitude":19.37937},{"id":700,"name":"Maratońska-Popiełuszki","latitude":51.73629,"longitude":19.38541},{"id":701,"name":"Popiełuszki-Popiełuszki 21","latitude":51.74025,"longitude":19.38407},{"id":702,"name":"Maratońska-Maratońska 91","latitude":51.73683,"longitude":19.39123},{"id":703,"name":"Maratońska-Plocka","latitude":51.7388,"longitude":19.39811},{"id":704,"name":"Maratońska-Retkińska","latitude":51.74132,"longitude":19.40638},{"id":705,"name":"Retkińska-Maratońska","latitude":51.74205,"longitude":19.40542},{"id":706,"name":"Maratońska-Obywatelska","latitude":51.7424,"longitude":19.41201},{"id":707,"name":"Nowe Sady-Waltera-Janke","latitude":51.74307,"longitude":19.42293},{"id":708,"name":"Waltera-Janke-Maratońska","latitude":51.74327,"longitude":19.42127},{"id":709,"name":"Waltera-Janke-Bratysławska","latitude":51.74675,"longitude":19.41967},{"id":711,"name":"Maratońska-Obywatelska","latitude":51.74244,"longitude":19.41179},{"id":712,"name":"Maratońska-Retkińska","latitude":51.741,"longitude":19.40404},{"id":713,"name":"Maratońska-Plocka","latitude":51.73875,"longitude":19.39749},{"id":714,"name":"Maratońska-Maratońska 91","latitude":51.73681,"longitude":19.39046},{"id":715,"name":"Maratońska-Popiełuszki","latitude":51.73638,"longitude":19.38572},{"id":717,"name":"Maratońska (wew.)-Popiełuszki","latitude":51.73711,"longitude":19.38812},{"id":718,"name":"Maratońska-Popiełuszki","latitude":51.73714,"longitude":19.38739},{"id":720,"name":"Maratońska-Gimnastyczna","latitude":51.7359,"longitude":19.37922},{"id":721,"name":"Maratońska-Kolarska","latitude":51.73493,"longitude":19.37583},{"id":722,"name":"Maratońska-Golfowa","latitude":51.73276,"longitude":19.36767},{"id":723,"name":"Golfowa-Maratońska","latitude":51.73277,"longitude":19.3671},{"id":724,"name":"Maratońska-Maratońska 172","latitude":51.73048,"longitude":19.3591},{"id":725,"name":"Maratońska-Sanitariuszek","latitude":51.72661,"longitude":19.35202},{"id":726,"name":"Sanitariuszek-G.O.Ś.","latitude":51.72708,"longitude":19.34939},{"id":727,"name":"Marmurowa-Moskuliki","latitude":51.81075,"longitude":19.55017},{"id":735,"name":"Marmurowa-Moskuliki","latitude":51.81052,"longitude":19.54968},{"id":738,"name":"Marysińska-Szklana","latitude":51.79316,"longitude":19.46597},{"id":739,"name":"Mickiewicza-Żeromskiego","latitude":51.75728,"longitude":19.44689},{"id":741,"name":"Piłsudskiego / Kilińskiego","latitude":51.76017,"longitude":19.46999},{"id":743,"name":"Piłsudskiego-Sienkiewicza","latitude":51.75978,"longitude":19.46383},{"id":744,"name":"Piotrkowska Centrum","latitude":51.75922,"longitude":19.45647},{"id":746,"name":"Bandurskiego-Dw. Łódź Kaliska","latitude":51.75588,"longitude":19.4318},{"id":747,"name":"Nowy Józefów-Golfowa","latitude":51.73637,"longitude":19.3675},{"id":748,"name":"Żeromskiego-Kopernika","latitude":51.76157,"longitude":19.44768},{"id":749,"name":"Włókniarzy-Karolewska (Dw. Ł. Kalis","latitude":51.75843,"longitude":19.43379},{"id":751,"name":"Dw. Łódź Kaliska","latitude":51.75671,"longitude":19.43101},{"id":752,"name":"Milionowa-Przędzalniana","latitude":51.75138,"longitude":19.48674},{"id":753,"name":"Śmigłego-Rydza-Milionowa","latitude":51.75119,"longitude":19.48908},{"id":754,"name":"Milionowa-Śmigłego-Rydza","latitude":51.75174,"longitude":19.48845},{"id":755,"name":"Przędzalniana-Milionowa","latitude":51.75165,"longitude":19.4858},{"id":756,"name":"Młynek","latitude":51.72359,"longitude":19.52048},{"id":757,"name":"Śląska-Kowalszczyzna","latitude":51.72655,"longitude":19.51676},{"id":758,"name":"Narutowicza-Kilińskiego","latitude":51.77113,"longitude":19.46315},{"id":759,"name":"Narutowicza-P.O.W.","latitude":51.77118,"longitude":19.46537},{"id":761,"name":"Narutowicza-pl. Dąbrowskiego","latitude":51.77185,"longitude":19.47037},{"id":762,"name":"Sterlinga-pl. Dąbrowskiego","latitude":51.77327,"longitude":19.46914},{"id":763,"name":"Narutowicza-pl. Dąbrowskiego","latitude":51.77192,"longitude":19.47043},{"id":764,"name":"Uniwersytecka-Rondo Solidarności","latitude":51.77814,"longitude":19.48015},{"id":765,"name":"Narutowicza-Tramwajowa","latitude":51.7723,"longitude":19.47572},{"id":766,"name":"Narutowicza-Tramwajowa","latitude":51.77239,"longitude":19.47588},{"id":767,"name":"Narutowicza-Kopcińskiego","latitude":51.77288,"longitude":19.48137},{"id":768,"name":"Narutowicza-Kopcińskiego","latitude":51.77292,"longitude":19.48203},{"id":769,"name":"Narutowicza-pl. Dąbrowskiego","latitude":51.7719,"longitude":19.46972},{"id":770,"name":"Narutowicza-Radiostacja","latitude":51.77422,"longitude":19.49513},{"id":771,"name":"Krzywickiego-Radiostacja","latitude":51.77346,"longitude":19.4934},{"id":772,"name":"Narutowicza-Radiostacja","latitude":51.77398,"longitude":19.49449},{"id":773,"name":"Pomorska-Lumumby (kampus UŁ)","latitude":51.77764,"longitude":19.49439},{"id":774,"name":"Narutowicza-Radiostacja","latitude":51.77432,"longitude":19.49442},{"id":775,"name":"Pomorska-Konstytucyjna","latitude":51.77757,"longitude":19.49681},{"id":776,"name":"Narutowicza-Radiostacja","latitude":51.77426,"longitude":19.49483},{"id":777,"name":"Narutowicza-Matejki (kampus UŁ)","latitude":51.77373,"longitude":19.49006},{"id":778,"name":"Narutowicza-Matejki (kampus UŁ)","latitude":51.77374,"longitude":19.4901},{"id":779,"name":"Narutowicza-Kopcińskiego","latitude":51.7731,"longitude":19.48346},{"id":780,"name":"Narutowicza-Kopcińskiego","latitude":51.77319,"longitude":19.484},{"id":783,"name":"Narutowicza-pl. Dąbrowskiego","latitude":51.77191,"longitude":19.46981},{"id":784,"name":"Narutowicza-Kilińskiego","latitude":51.77116,"longitude":19.46297},{"id":787,"name":"Narutowicza-Piotrkowska","latitude":51.7707,"longitude":19.45649},{"id":788,"name":"Nawrot-Kilińskiego","latitude":51.76302,"longitude":19.46654},{"id":789,"name":"Nawrot-Targowa","latitude":51.76359,"longitude":19.47347},{"id":790,"name":"Nawrot-Wysoka","latitude":51.76391,"longitude":19.47732},{"id":791,"name":"Niciarniana-szpital położniczy","latitude":51.75637,"longitude":19.51027},{"id":792,"name":"Niciarniana-przychodnia","latitude":51.75995,"longitude":19.5092},{"id":793,"name":"Niciarniana-Piłsudskiego","latitude":51.76429,"longitude":19.50793},{"id":794,"name":"Niciarniana-Dw. Łódź Niciarniana","latitude":51.76745,"longitude":19.50693},{"id":795,"name":"Niciarniana-Czechosłowacka","latitude":51.77133,"longitude":19.50579},{"id":796,"name":"Piłsudskiego-Niciarniana","latitude":51.76339,"longitude":19.50734},{"id":797,"name":"Piłsudskiego-Niciarniana","latitude":51.76333,"longitude":19.50898},{"id":798,"name":"Niciarniana-Piłsudskiego","latitude":51.76278,"longitude":19.50817},{"id":799,"name":"Niciarniana-przychodnia","latitude":51.75963,"longitude":19.50912},{"id":800,"name":"Niciarniana-szpital położniczy","latitude":51.75575,"longitude":19.51028},{"id":801,"name":"Przybyszewskiego-Niciarniana","latitude":51.75047,"longitude":19.51355},{"id":802,"name":"Niższa-Śląska","latitude":51.72893,"longitude":19.4901},{"id":803,"name":"Niższa-Śląska","latitude":51.729,"longitude":19.49019},{"id":804,"name":"Niższa-Broniewskiego","latitude":51.73219,"longitude":19.4891},{"id":805,"name":"Śmigłego-Rydza-Dąbrowskiego","latitude":51.73703,"longitude":19.48894},{"id":806,"name":"Nowe Sady-Elektronowa","latitude":51.74154,"longitude":19.43429},{"id":807,"name":"Nowe Sady-zajezdnia NOWE SADY","latitude":51.74605,"longitude":19.43138},{"id":808,"name":"Nowe Sady-zajezdnia MPK","latitude":51.7464,"longitude":19.43021},{"id":809,"name":"Nowe Sady-ROD Olimpijka","latitude":51.74239,"longitude":19.42712},{"id":810,"name":"Nowe Sady-ROD Olimpijka","latitude":51.74325,"longitude":19.42647},{"id":811,"name":"Nowe Sady-Waltera-Janke","latitude":51.74318,"longitude":19.42357},{"id":812,"name":"Nowe Sady-ROD Olimpijka","latitude":51.74317,"longitude":19.42672},{"id":813,"name":"Nowe Sady-zajezdnia MPK","latitude":51.74634,"longitude":19.43072},{"id":814,"name":"Nowomiejska-Północna","latitude":51.77865,"longitude":19.45441},{"id":815,"name":"Zgierska-pl. Kościelny","latitude":51.78309,"longitude":19.45337},{"id":816,"name":"Nowomiejska-Północna","latitude":51.77923,"longitude":19.4541},{"id":817,"name":"Pomorska-pl. Wolności","latitude":51.77692,"longitude":19.45701},{"id":818,"name":"Legionów-Zachodnia","latitude":51.77665,"longitude":19.45259},{"id":819,"name":"Legionów-Artyleryjska","latitude":51.77094,"longitude":19.43166},{"id":820,"name":"Zielona-1 Maja","latitude":51.76913,"longitude":19.431},{"id":821,"name":"Legionów-Włókniarzy","latitude":51.76873,"longitude":19.42693},{"id":822,"name":"Legionów-Legionów","latitude":51.76918,"longitude":19.4286},{"id":823,"name":"Legionów-Włókniarzy","latitude":51.76933,"longitude":19.42707},{"id":824,"name":"Legionów-Żeligowskiego","latitude":51.77284,"longitude":19.43726},{"id":825,"name":"Legionów-Cmentarna","latitude":51.77495,"longitude":19.44321},{"id":826,"name":"Zachodnia-Próchnika","latitude":51.77414,"longitude":19.4526},{"id":827,"name":"Ogrodowa-Nowomiejska","latitude":51.77886,"longitude":19.45374},{"id":828,"name":"Zachodnia-Manufaktura","latitude":51.78031,"longitude":19.45135},{"id":829,"name":"Legionów-Gdańska","latitude":51.77627,"longitude":19.44816},{"id":830,"name":"Legionów-Żeligowskiego","latitude":51.77322,"longitude":19.43808},{"id":831,"name":"Legionów-Artyleryjska","latitude":51.77206,"longitude":19.43484},{"id":832,"name":"Włókniarzy-Koziny","latitude":51.77234,"longitude":19.42168},{"id":833,"name":"Legionów-Włókniarzy","latitude":51.76946,"longitude":19.42692},{"id":834,"name":"Unii Lubelskiej-Konstantynowska","latitude":51.7681,"longitude":19.42098},{"id":835,"name":"Źródłowa-Wojska Polskiego","latitude":51.78551,"longitude":19.46756},{"id":836,"name":"Obywatelska-Obywatelska 106","latitude":51.73687,"longitude":19.43196},{"id":837,"name":"Obywatelska-Nowe Sady","latitude":51.73642,"longitude":19.43558},{"id":838,"name":"Jana Pawła II-Obywatelska","latitude":51.73581,"longitude":19.442},{"id":839,"name":"Obywatelska-Jana Pawła II","latitude":51.73633,"longitude":19.44302},{"id":840,"name":"Jana Pawła II-Obywatelska","latitude":51.73726,"longitude":19.44248},{"id":841,"name":"Politechniki-Obywatelska","latitude":51.73689,"longitude":19.45291},{"id":842,"name":"Politechniki-Obywatelska","latitude":51.73614,"longitude":19.45252},{"id":843,"name":"Obywatelska-Politechniki","latitude":51.73641,"longitude":19.45171},{"id":844,"name":"Obywatelska-Jana Pawła II","latitude":51.73655,"longitude":19.44288},{"id":845,"name":"Obywatelska-Nowe Sady","latitude":51.73679,"longitude":19.43539},{"id":846,"name":"Obywatelska-Jana Pawła II","latitude":51.73656,"longitude":19.44116},{"id":847,"name":"Obywatelska-Elektronowa","latitude":51.73761,"longitude":19.42592},{"id":848,"name":"Północna-Kilińskiego","latitude":51.77947,"longitude":19.46058},{"id":850,"name":"Ogrodowa-Nowomiejska","latitude":51.77876,"longitude":19.4537},{"id":851,"name":"Północna-Kilińskiego","latitude":51.77936,"longitude":19.46014},{"id":852,"name":"Okólna-Łagiewniki","latitude":51.84689,"longitude":19.47469},{"id":853,"name":"Okólna-Łagiewnicka","latitude":51.84675,"longitude":19.4688},{"id":854,"name":"Wycieczkowa-sanatorium","latitude":51.83531,"longitude":19.48328},{"id":855,"name":"Olechowska-Olechowska 56","latitude":51.73516,"longitude":19.54777},{"id":856,"name":"Olechowska-Przewozowa","latitude":51.73786,"longitude":19.55245},{"id":857,"name":"Zakładowa-Odnowiciela","latitude":51.74153,"longitude":19.56262},{"id":858,"name":"Olechowska-Przewozowa","latitude":51.73806,"longitude":19.55259},{"id":859,"name":"Olechowska-Olechowska 56","latitude":51.73503,"longitude":19.54735},{"id":860,"name":"Olechowska-Olechowska 36","latitude":51.73257,"longitude":19.54325},{"id":861,"name":"Tomaszowska-Bławatna","latitude":51.73241,"longitude":19.52974},{"id":862,"name":"Opolska-Zjazdowa","latitude":51.80695,"longitude":19.53219},{"id":863,"name":"Zjazdowa-Budy","latitude":51.8044,"longitude":19.53072},{"id":864,"name":"Pabianicka-Chocianowicka","latitude":51.70603,"longitude":19.42193},{"id":865,"name":"Pabianicka-Rudzka","latitude":51.71165,"longitude":19.42909},{"id":866,"name":"Pabianicka-Chocianowicka","latitude":51.70608,"longitude":19.42183},{"id":867,"name":"Pabianicka- ET-2","latitude":51.70791,"longitude":19.42448},{"id":868,"name":"Pabianicka-Dubois","latitude":51.71561,"longitude":19.43388},{"id":869,"name":"Pabianicka-3 Maja","latitude":51.71869,"longitude":19.43765},{"id":870,"name":"Starorudzka-Pabianicka","latitude":51.71628,"longitude":19.436},{"id":871,"name":"Pabianicka-Prądzyńskiego","latitude":51.72312,"longitude":19.44302},{"id":872,"name":"Pabianicka-Prądzyńskiego","latitude":51.72303,"longitude":19.44312},{"id":873,"name":"Pabianicka-Jana Pawła II","latitude":51.72763,"longitude":19.4486},{"id":874,"name":"Jana Pawła II-Rogozińskiego","latitude":51.73275,"longitude":19.44215},{"id":875,"name":"Pabianicka-Jana Pawła II","latitude":51.72738,"longitude":19.44846},{"id":876,"name":"Pabianicka-r. Lotników Lwowskich","latitude":51.73058,"longitude":19.45226},{"id":877,"name":"Pabianicka-r. Lotników Lwowskich","latitude":51.73015,"longitude":19.45188},{"id":878,"name":"Pabianicka-Wólczańska","latitude":51.73656,"longitude":19.45953},{"id":879,"name":"Paderewskiego-Zaolziańska","latitude":51.72933,"longitude":19.45675},{"id":880,"name":"Politechniki-Obywatelska","latitude":51.73609,"longitude":19.45283},{"id":881,"name":"Pabianicka-Jana Pawła II","latitude":51.72752,"longitude":19.44827},{"id":882,"name":"Pabianicka-r. Lotników Lwowskich","latitude":51.73208,"longitude":19.45429},{"id":883,"name":"Paderewskiego-Zaolziańska","latitude":51.72883,"longitude":19.45752},{"id":884,"name":"Politechniki-r. Lotników Lwowskich","latitude":51.73303,"longitude":19.45294},{"id":885,"name":"Piotrkowska-pl. Niepodległości","latitude":51.74085,"longitude":19.46266},{"id":886,"name":"Wólczańska-Skargi","latitude":51.7388,"longitude":19.45863},{"id":887,"name":"pl. Niepodległości","latitude":51.73981,"longitude":19.46356},{"id":888,"name":"Rzgowska-Dąbrowskiego","latitude":51.73866,"longitude":19.4669},{"id":889,"name":"Przybyszewskiego-pl. Reymonta","latitude":51.74278,"longitude":19.46264},{"id":890,"name":"Piotrkowska-Czerwona","latitude":51.74573,"longitude":19.46167},{"id":891,"name":"Pabianicka-pl. Niepodległości","latitude":51.73855,"longitude":19.46182},{"id":892,"name":"Pabianicka-r. Lotników Lwowskich","latitude":51.73247,"longitude":19.45411},{"id":893,"name":"Pabianicka-r. Lotników Lwowskich","latitude":51.73228,"longitude":19.45417},{"id":894,"name":"Pabianicka-Jana Pawła II","latitude":51.72811,"longitude":19.44883},{"id":895,"name":"Pabianicka-Prądzyńskiego","latitude":51.723,"longitude":19.4427},{"id":896,"name":"Pabianicka-Prądzyńskiego","latitude":51.7232,"longitude":19.44273},{"id":897,"name":"Pabianicka-3 Maja","latitude":51.71862,"longitude":19.43735},{"id":898,"name":"Pabianicka-Dubois","latitude":51.71567,"longitude":19.43376},{"id":899,"name":"Pabianicka-Dubois","latitude":51.71576,"longitude":19.43359},{"id":900,"name":"Pabianicka-Rudzka","latitude":51.71166,"longitude":19.42889},{"id":901,"name":"Pabianicka-Długa","latitude":51.70314,"longitude":19.41792},{"id":902,"name":"Paderewskiego-Karpacka","latitude":51.72665,"longitude":19.46271},{"id":903,"name":"Paderewskiego-Karpacka","latitude":51.72622,"longitude":19.46416},{"id":904,"name":"Paderewskiego-Karpacka","latitude":51.72608,"longitude":19.46426},{"id":905,"name":"Paderewskiego-Tuszyńska","latitude":51.72853,"longitude":19.46954},{"id":906,"name":"Paderewskiego-Karpacka","latitude":51.72697,"longitude":19.46224},{"id":907,"name":"Paderewskiego-Tuszyńska","latitude":51.72889,"longitude":19.47067},{"id":908,"name":"Paderewskiego-Rzgowska","latitude":51.73025,"longitude":19.47427},{"id":909,"name":"Rzgowska-Dachowa","latitude":51.7251,"longitude":19.4805},{"id":910,"name":"Paderewskiego-Rzgowska","latitude":51.73033,"longitude":19.4742},{"id":911,"name":"Paderewskiego-Tuszyńska","latitude":51.72892,"longitude":19.4703},{"id":912,"name":"Paderewskiego-Zaolziańska","latitude":51.7295,"longitude":19.45687},{"id":913,"name":"Paderewskiego-Karpacka","latitude":51.72673,"longitude":19.46277},{"id":914,"name":"Paderewskiego-Zaolziańska","latitude":51.72904,"longitude":19.45754},{"id":915,"name":"Paderewskiego-r. Lotników Lwowskich","latitude":51.73096,"longitude":19.45388},{"id":916,"name":"Paradna-Obszerna","latitude":51.71114,"longitude":19.47285},{"id":917,"name":"Paradna-Matek Polskich","latitude":51.70997,"longitude":19.47805},{"id":918,"name":"Matek Polskich-Sczanieckiej","latitude":51.70693,"longitude":19.47572},{"id":919,"name":"Matek Polskich-Przednia","latitude":51.7042,"longitude":19.47861},{"id":920,"name":"Matek Polskich-ICZMP szpital","latitude":51.70511,"longitude":19.48213},{"id":921,"name":"Paradna-Rzgowska","latitude":51.70927,"longitude":19.48562},{"id":922,"name":"Matek Polskich-ICZMP przychodnia","latitude":51.70851,"longitude":19.48475},{"id":923,"name":"Matek Polskich-ICZMP szpital","latitude":51.70555,"longitude":19.48241},{"id":924,"name":"Matek Polskich-Przednia","latitude":51.7043,"longitude":19.47857},{"id":925,"name":"Matek Polskich-Sczanieckiej","latitude":51.70715,"longitude":19.4761},{"id":926,"name":"Paradna-Matek Polskich","latitude":51.71025,"longitude":19.4771},{"id":927,"name":"Paradna-Obszerna","latitude":51.71089,"longitude":19.47429},{"id":928,"name":"Demokratyczna-Trybunalska","latitude":51.71177,"longitude":19.46573},{"id":929,"name":"Ustronna-Demokratyczna","latitude":51.71157,"longitude":19.46589},{"id":930,"name":"Pieniny-Giewont","latitude":51.77893,"longitude":19.52723},{"id":931,"name":"Piłsudskiego-Kilińskiego","latitude":51.76013,"longitude":19.46801},{"id":933,"name":"Tuwima-Wydawnicza","latitude":51.76722,"longitude":19.48625},{"id":934,"name":"Tuwima-Wydawnicza","latitude":51.76722,"longitude":19.48637},{"id":935,"name":"Piłsudskiego-Przędzalniana","latitude":51.76105,"longitude":19.4803},{"id":936,"name":"Piłsudskiego-Śmigłego-Rydza","latitude":51.7616,"longitude":19.48609},{"id":937,"name":"Piłsudskiego-Sarnia","latitude":51.76211,"longitude":19.49434},{"id":938,"name":"Piłsudskiego-Konstytucyjna","latitude":51.76291,"longitude":19.50219},{"id":939,"name":"Piłsudskiego-Konstytucyjna","latitude":51.76288,"longitude":19.50355},{"id":940,"name":"Piłsudskiego-Niciarniana","latitude":51.76342,"longitude":19.50888},{"id":941,"name":"Piłsudskiego-WIDZEW STADION","latitude":51.76371,"longitude":19.51698},{"id":942,"name":"Piłsudskiego-WIDZEW STADION","latitude":51.76371,"longitude":19.51707},{"id":943,"name":"Rokicińska-Maszynowa","latitude":51.76243,"longitude":19.52778},{"id":944,"name":"Piłsudskiego-WIDZEW STADION","latitude":51.76421,"longitude":19.5166},{"id":945,"name":"Rokicińska-Maszynowa","latitude":51.76218,"longitude":19.52865},{"id":946,"name":"Widzewska-Wiejska","latitude":51.76023,"longitude":19.51789},{"id":947,"name":"Piłsudskiego-Niciarniana","latitude":51.76338,"longitude":19.50722},{"id":948,"name":"Piłsudskiego-WIDZEW STADION","latitude":51.76422,"longitude":19.51687},{"id":949,"name":"Piłsudskiego-Konstytucyjna","latitude":51.76299,"longitude":19.50218},{"id":950,"name":"Piłsudskiego-Konstytucyjna","latitude":51.76314,"longitude":19.50196},{"id":951,"name":"Piłsudskiego-Sarnia","latitude":51.76225,"longitude":19.49314},{"id":952,"name":"Piłsudskiego-Sarnia","latitude":51.76235,"longitude":19.4923},{"id":953,"name":"Piłsudskiego-Śmigłego-Rydza","latitude":51.76145,"longitude":19.48401},{"id":954,"name":"Piłsudskiego-Śmigłego-Rydza","latitude":51.76192,"longitude":19.48761},{"id":955,"name":"Wydawnicza","latitude":51.76721,"longitude":19.48595},{"id":956,"name":"Piłsudskiego-Targowa","latitude":51.76071,"longitude":19.47381},{"id":957,"name":"Piłsudskiego-Kilińskiego","latitude":51.76034,"longitude":19.4695},{"id":958,"name":"Sienkiewicza-Piłsudskiego","latitude":51.75897,"longitude":19.46295},{"id":959,"name":"Piotrkowska-pl. Katedralny","latitude":51.74821,"longitude":19.46115},{"id":960,"name":"Piotrkowska-Brzeźna","latitude":51.75234,"longitude":19.4602},{"id":961,"name":"Piotrkowska-Żwirki","latitude":51.75569,"longitude":19.45935},{"id":962,"name":"Piotrkowska-pl. Katedralny","latitude":51.74972,"longitude":19.46048},{"id":963,"name":"Piotrkowska-Czerwona","latitude":51.74668,"longitude":19.46116},{"id":964,"name":"Piotrkowska-pl. Niepodległości","latitude":51.74047,"longitude":19.46261},{"id":965,"name":"Przybyszewskiego-Brzozowa","latitude":51.74399,"longitude":19.4687},{"id":967,"name":"Rewolucji 1905r.-Kamińskiego","latitude":51.77641,"longitude":19.47476},{"id":970,"name":"Zgierska-Bałucki Rynek","latitude":51.78595,"longitude":19.45273},{"id":972,"name":"Rzgowska-pl. Niepodległości","latitude":51.7394,"longitude":19.4661},{"id":973,"name":"Politechniki-Felsztyńskiego","latitude":51.74045,"longitude":19.45239},{"id":974,"name":"Bandurskiego-Wileńska","latitude":51.75384,"longitude":19.42178},{"id":975,"name":"Waltera-Janke-Wyszyńskiego","latitude":51.74658,"longitude":19.41892},{"id":977,"name":"Włókniarzy-Mickiewicza (Dw. Ł. Kali","latitude":51.75689,"longitude":19.43371},{"id":978,"name":"Pojezierska-Włókniarzy","latitude":51.799,"longitude":19.42561},{"id":979,"name":"Pojezierska-Grunwaldzka","latitude":51.79852,"longitude":19.43007},{"id":980,"name":"Zgierska-Sędziowska","latitude":51.79493,"longitude":19.44573},{"id":981,"name":"Pojezierska-Włókniarzy","latitude":51.79906,"longitude":19.42638},{"id":982,"name":"Pojezierska-Elektrociepłownia EC3","latitude":51.79959,"longitude":19.4212},{"id":983,"name":"Św. Teresy-św. Teresy 91","latitude":51.80473,"longitude":19.42035},{"id":984,"name":"Włókniarzy-św. Teresy","latitude":51.80531,"longitude":19.42618},{"id":985,"name":"Politechniki-Felsztyńskiego","latitude":51.73962,"longitude":19.4524},{"id":986,"name":"Politechniki-Wróblewskiego (kampus","latitude":51.74402,"longitude":19.4514},{"id":987,"name":"Politechniki-Wróblewskiego (kampus","latitude":51.74372,"longitude":19.45157},{"id":988,"name":"Politechniki-Radwańska (kampus PŁ)","latitude":51.75109,"longitude":19.45003},{"id":989,"name":"Rembielińskiego-Inżynierska","latitude":51.75042,"longitude":19.4439},{"id":991,"name":"Wólczańska-Skrzywana","latitude":51.74408,"longitude":19.45731},{"id":992,"name":"Politechniki-Radwańska (kampus PŁ)","latitude":51.75157,"longitude":19.4497},{"id":993,"name":"Żeromskiego-Mickiewicza","latitude":51.75734,"longitude":19.44858},{"id":994,"name":"Żeromskiego-Mickiewicza","latitude":51.75621,"longitude":19.44885},{"id":995,"name":"Radwańska-Wólczańska","latitude":51.75226,"longitude":19.45508},{"id":996,"name":"Politechniki-Wróblewskiego (kampus","latitude":51.74471,"longitude":19.45106},{"id":997,"name":"Politechniki-Felsztyńskiego","latitude":51.73961,"longitude":19.45223},{"id":998,"name":"Politechniki-Wróblewskiego (kampus","latitude":51.74498,"longitude":19.45072},{"id":999,"name":"Politechniki-Felsztyńskiego","latitude":51.739,"longitude":19.4522},{"id":1000,"name":"Politechniki-Obywatelska","latitude":51.73663,"longitude":19.45261},{"id":1001,"name":"Politechniki-r. Lotników Lwowskich","latitude":51.73229,"longitude":19.4527},{"id":1002,"name":"Politechniki-r. Lotników Lwowskich","latitude":51.7331,"longitude":19.45264},{"id":1003,"name":"Pomorska-Kilińskiego","latitude":51.77734,"longitude":19.46144},{"id":1004,"name":"Pomorska-Kamińskiego","latitude":51.77841,"longitude":19.47449},{"id":1005,"name":"Pomorska-Rondo Solidarności","latitude":51.7789,"longitude":19.4801},{"id":1006,"name":"Pomorska-Matejki","latitude":51.77859,"longitude":19.48503},{"id":1007,"name":"Pomorska-Tamka","latitude":51.77814,"longitude":19.48916},{"id":1008,"name":"Pomorska-Lumumby (kampus UŁ)","latitude":51.77753,"longitude":19.4953},{"id":1009,"name":"Pomorska-Juhasowa","latitude":51.77265,"longitude":19.5437},{"id":1010,"name":"Pomorska-Arniki","latitude":51.77165,"longitude":19.55322},{"id":1011,"name":"Pomorska-Henrykowska","latitude":51.77063,"longitude":19.56315},{"id":1012,"name":"Pomorska-Mileszki","latitude":51.77003,"longitude":19.57096},{"id":1013,"name":"Pomorska-Pomorska 466","latitude":51.77439,"longitude":19.58112},{"id":1014,"name":"Pomorska-Śródziemnomorska","latitude":51.78013,"longitude":19.58829},{"id":1015,"name":"Pomorska-Gryfa Pomorskiego","latitude":51.78453,"longitude":19.58877},{"id":1016,"name":"Pomorska-Wendy","latitude":51.78816,"longitude":19.58914},{"id":1017,"name":"Pomorska-Nowosolna","latitude":51.79319,"longitude":19.58949},{"id":1018,"name":"Pomorska-Wendy","latitude":51.78877,"longitude":19.58905},{"id":1019,"name":"Pomorska-Gryfa Pomorskiego","latitude":51.78511,"longitude":19.58869},{"id":1020,"name":"Pomorska-Śródziemnomorska","latitude":51.77987,"longitude":19.58811},{"id":1021,"name":"Pomorska-Pomorska 466","latitude":51.77405,"longitude":19.58023},{"id":1022,"name":"Pomorska-Mileszki","latitude":51.77024,"longitude":19.57111},{"id":1023,"name":"Pomorska-Henrykowska","latitude":51.77069,"longitude":19.5635},{"id":1024,"name":"Pomorska-Arniki","latitude":51.77174,"longitude":19.55333},{"id":1025,"name":"Skalna-Juhasowa","latitude":51.77415,"longitude":19.54318},{"id":1026,"name":"Pomorska-Tamka","latitude":51.77816,"longitude":19.49041},{"id":1027,"name":"Pomorska-Matejki","latitude":51.77857,"longitude":19.48639},{"id":1028,"name":"Pomorska-Rondo Solidarności","latitude":51.779,"longitude":19.48012},{"id":1029,"name":"Pomorska-Kamińskiego","latitude":51.7786,"longitude":19.47519},{"id":1030,"name":"Pomorska-Sterlinga","latitude":51.7781,"longitude":19.46916},{"id":1031,"name":"Pomorska-Kilińskiego","latitude":51.77751,"longitude":19.46237},{"id":1032,"name":"Popiełuszki-Pływacka","latitude":51.74376,"longitude":19.38215},{"id":1033,"name":"Popiełuszki-Popiełuszki 21","latitude":51.7399,"longitude":19.38416},{"id":1034,"name":"Północna-Kamińskiego","latitude":51.78044,"longitude":19.47284},{"id":1035,"name":"Kopcińskiego-rondo Solidarności","latitude":51.77812,"longitude":19.48141},{"id":1036,"name":"Północna-Kamińskiego","latitude":51.78068,"longitude":19.47459},{"id":1037,"name":"Sterlinga-Pomorska","latitude":51.77849,"longitude":19.4686},{"id":1038,"name":"Zachodnia-Legionów","latitude":51.77696,"longitude":19.45198},{"id":1039,"name":"Zachodnia-Lutomierska","latitude":51.78335,"longitude":19.45033},{"id":1040,"name":"Próchnika-Piotrkowska","latitude":51.77462,"longitude":19.45469},{"id":1041,"name":"Rewolucji 1905r.-Kilińskiego","latitude":51.77538,"longitude":19.46365},{"id":1042,"name":"Pryncypalna-Kosynierów Gdyńskich","latitude":51.72114,"longitude":19.46664},{"id":1043,"name":"Pryncypalna-Mieszkalna","latitude":51.72272,"longitude":19.47068},{"id":1044,"name":"Kongresowa-Pryncypalna","latitude":51.72353,"longitude":19.47385},{"id":1045,"name":"Pryncypalna-Kosynierów Gdyńskich","latitude":51.72129,"longitude":19.46717},{"id":1046,"name":"Pryncypalna-Mocna","latitude":51.71884,"longitude":19.46035},{"id":1047,"name":"Pryncypalna-Mieszkalna","latitude":51.72247,"longitude":19.47014},{"id":1048,"name":"Tymienieckiego-Przędzalniana","latitude":51.75413,"longitude":19.48284},{"id":1049,"name":"Przędzalniana-Tymienieckiego","latitude":51.75491,"longitude":19.48369},{"id":1050,"name":"Tuwima-Przędzalniana","latitude":51.76752,"longitude":19.48039},{"id":1051,"name":"Przędzalniana-Piłsudskiego","latitude":51.76201,"longitude":19.48098},{"id":1052,"name":"Przybyszewskiego-Kilińskiego","latitude":51.74511,"longitude":19.47474},{"id":1053,"name":"Przybyszewskiego-Śmigłego-Rydza","latitude":51.74752,"longitude":19.48885},{"id":1054,"name":"Przybyszewskiego-Tatrzańska","latitude":51.74802,"longitude":19.49291},{"id":1055,"name":"Śmigłego-Rydza-Zbaraska","latitude":51.744,"longitude":19.48928},{"id":1056,"name":"Przybyszewskiego-Zapadła","latitude":51.74876,"longitude":19.49934},{"id":1057,"name":"Przybyszewskiego-Tatrzańska","latitude":51.74804,"longitude":19.49306},{"id":1058,"name":"Przybyszewskiego-Zapadła","latitude":51.74876,"longitude":19.49942},{"id":1059,"name":"Przybyszewskiego-Nurta-Kaszyńskiego","latitude":51.74969,"longitude":19.50573},{"id":1060,"name":"Przybyszewskiego-Nurta-Kaszyńskiego","latitude":51.74971,"longitude":19.5059},{"id":1061,"name":"Przybyszewskiego-Niciarniana","latitude":51.75056,"longitude":19.51352},{"id":1062,"name":"Przybyszewskiego-Lodowa","latitude":51.75178,"longitude":19.5215},{"id":1064,"name":"Przybyszewskiego-Papiernicza (CRO)","latitude":51.75113,"longitude":19.51857},{"id":1065,"name":"Przybyszewskiego-Rondo Sybiraków","latitude":51.75248,"longitude":19.52906},{"id":1066,"name":"Przybyszewskiego-Rondo Sybiraków","latitude":51.75229,"longitude":19.52898},{"id":1067,"name":"Puszkina-Rondo Sybiraków","latitude":51.75402,"longitude":19.53282},{"id":1068,"name":"Zakładowa-Hetmańska","latitude":51.74061,"longitude":19.56769},{"id":1069,"name":"Przybyszewskiego-Czajkowskiego","latitude":51.75125,"longitude":19.54102},{"id":1070,"name":"Przybyszewskiego-Augustów","latitude":51.74922,"longitude":19.54712},{"id":1071,"name":"Przybyszewskiego-Czajkowskiego","latitude":51.75155,"longitude":19.5416},{"id":1072,"name":"Przybyszewskiego-Rondo Sybiraków","latitude":51.75291,"longitude":19.52875},{"id":1073,"name":"Przybyszewskiego-Lodowa","latitude":51.75188,"longitude":19.52141},{"id":1074,"name":"Przybyszewskiego-Lodowa","latitude":51.75188,"longitude":19.52148},{"id":1075,"name":"Przybyszewskiego-Niciarniana","latitude":51.75067,"longitude":19.51348},{"id":1076,"name":"Przybyszewskiego-Niciarniana","latitude":51.75072,"longitude":19.51298},{"id":1077,"name":"Przybyszewskiego-Nurta-Kaszyńskiego","latitude":51.74991,"longitude":19.50697},{"id":1078,"name":"Przybyszewskiego-Nurta-Kaszyńskiego","latitude":51.74992,"longitude":19.50706},{"id":1079,"name":"Przybyszewskiego-Zapadła","latitude":51.74888,"longitude":19.49981},{"id":1080,"name":"Przybyszewskiego-Zapadła","latitude":51.74889,"longitude":19.49991},{"id":1081,"name":"Przybyszewskiego-Śmigłego-Rydza","latitude":51.74774,"longitude":19.4903},{"id":1082,"name":"Przybyszewskiego-Śmigłego-Rydza","latitude":51.74775,"longitude":19.49042},{"id":1084,"name":"Przybyszewskiego-Łęczycka","latitude":51.74685,"longitude":19.48314},{"id":1085,"name":"Przybyszewskiego-Łęczycka","latitude":51.74696,"longitude":19.48401},{"id":1086,"name":"Śmigłego-Rydza-Milionowa","latitude":51.75131,"longitude":19.48942},{"id":1087,"name":"Przybyszewskiego-Kilińskiego","latitude":51.74571,"longitude":19.47703},{"id":1088,"name":"Przybyszewskiego-pl. Reymonta","latitude":51.74284,"longitude":19.46251},{"id":1089,"name":"Puszkina-Andrzejewskiej","latitude":51.74796,"longitude":19.5317},{"id":1090,"name":"Puszkina-Rondo Sybiraków","latitude":51.75359,"longitude":19.53206},{"id":1091,"name":"Puszkina-Chmielowskiego","latitude":51.7577,"longitude":19.53572},{"id":1092,"name":"Puszkina-rondo Inwalidów","latitude":51.75883,"longitude":19.5365},{"id":1093,"name":"Rokicińska-Rondo Inwalidów","latitude":51.76044,"longitude":19.53874},{"id":1094,"name":"Rokicińska-Maszynowa","latitude":51.76252,"longitude":19.52783},{"id":1095,"name":"Puszkina-Rondo Inwalidów","latitude":51.76163,"longitude":19.53812},{"id":1096,"name":"Rondo Inwalidów","latitude":51.7622,"longitude":19.53754},{"id":1097,"name":"Puszkina-Chmielowskiego","latitude":51.75776,"longitude":19.53561},{"id":1098,"name":"Puszkina-Rondo Sybiraków","latitude":51.75413,"longitude":19.53236},{"id":1099,"name":"Puszkina-Rondo Sybiraków","latitude":51.7538,"longitude":19.53156},{"id":1100,"name":"Przybyszewskiego-Rondo Sybiraków","latitude":51.7526,"longitude":19.529},{"id":1101,"name":"Puszkina-Andrzejewskiej","latitude":51.74882,"longitude":19.53093},{"id":1102,"name":"Puszkina-Dostawcza","latitude":51.74117,"longitude":19.53169},{"id":1103,"name":"Radwańska-Politechniki (kampus PŁ)","latitude":51.75166,"longitude":19.44791},{"id":1104,"name":"Kościuszki-Radwańska","latitude":51.75328,"longitude":19.45737},{"id":1107,"name":"Rataja-Gajcego","latitude":51.74824,"longitude":19.62342},{"id":1108,"name":"Rataja-Słoneczne Zacisze","latitude":51.75423,"longitude":19.61653},{"id":1109,"name":"Śląska-Lodowa","latitude":51.7275,"longitude":19.51001},{"id":1110,"name":"Śląska-Szymańskiego","latitude":51.72794,"longitude":19.50495},{"id":1111,"name":"Śląska-Lodowa","latitude":51.72753,"longitude":19.50915},{"id":1112,"name":"Śląska-Kowalszczyzna","latitude":51.72598,"longitude":19.51839},{"id":1113,"name":"Retkińska-Zagrodniki","latitude":51.74583,"longitude":19.40584},{"id":1114,"name":"Retkińska-Kusocińskiego","latitude":51.75288,"longitude":19.41119},{"id":1115,"name":"Retkińska-Kusocińskiego","latitude":51.75142,"longitude":19.4098},{"id":1116,"name":"Retkińska-Wyszyńskiego","latitude":51.74687,"longitude":19.4055},{"id":1117,"name":"Kusocińskiego-Babickiego","latitude":51.75236,"longitude":19.40009},{"id":1119,"name":"Retkińska-Zagrodniki","latitude":51.74475,"longitude":19.4053},{"id":1120,"name":"Rewolucji 1905r.-Sterlinga","latitude":51.77577,"longitude":19.46772},{"id":1121,"name":"Rojna","latitude":51.79548,"longitude":19.36137},{"id":1122,"name":"Rojna-Wici","latitude":51.79475,"longitude":19.36999},{"id":1123,"name":"Rydzowa-Lniana","latitude":51.79737,"longitude":19.3756},{"id":1124,"name":"Rojna-Rydzowa","latitude":51.79464,"longitude":19.37482},{"id":1126,"name":"Traktorowa-Nektarowa","latitude":51.78657,"longitude":19.39223},{"id":1127,"name":"Traktorowa-Grabieniec","latitude":51.79617,"longitude":19.39423},{"id":1128,"name":"Rojna-Traktorowa","latitude":51.79264,"longitude":19.39183},{"id":1129,"name":"Rojna-Kaczeńcowa","latitude":51.79369,"longitude":19.38586},{"id":1130,"name":"Rojna-Rydzowa","latitude":51.79472,"longitude":19.37478},{"id":1131,"name":"Rojna-Wici","latitude":51.79488,"longitude":19.37137},{"id":1132,"name":"Rojna-Szczecińska","latitude":51.79548,"longitude":19.36184},{"id":1133,"name":"Aleksandrowska-Szczecińska","latitude":51.80314,"longitude":19.36676},{"id":1134,"name":"Rokicińska-Rondo Inwalidów","latitude":51.7601,"longitude":19.53902},{"id":1135,"name":"Rokicińska-Lermontowa","latitude":51.75841,"longitude":19.54988},{"id":1136,"name":"Rokicińska-Lermontowa","latitude":51.75831,"longitude":19.54957},{"id":1137,"name":"Rokicińska-Augustów","latitude":51.75813,"longitude":19.5524},{"id":1138,"name":"Janów","latitude":51.75225,"longitude":19.57492},{"id":1140,"name":"Rokicińska-Lermontowa","latitude":51.75855,"longitude":19.54989},{"id":1141,"name":"Rokicińska-Rondo Inwalidów","latitude":51.76052,"longitude":19.53879},{"id":1142,"name":"Rokicińska-Rondo Inwalidów","latitude":51.76057,"longitude":19.53974},{"id":1145,"name":"Rudzka-Municypalna","latitude":51.70588,"longitude":19.43341},{"id":1146,"name":"Rudzka-Przestrzenna","latitude":51.70285,"longitude":19.43737},{"id":1148,"name":"Rudzka-Farna","latitude":51.70053,"longitude":19.43845},{"id":1149,"name":"Rudzka-Popioły","latitude":51.69766,"longitude":19.44111},{"id":1150,"name":"Rudzka-Cienista","latitude":51.69293,"longitude":19.4455},{"id":1153,"name":"Rudzka-Skrajna","latitude":51.68871,"longitude":19.4528},{"id":1154,"name":"Rudzka-Cienista","latitude":51.69319,"longitude":19.44544},{"id":1155,"name":"Rudzka-Popioły","latitude":51.69815,"longitude":19.44105},{"id":1156,"name":"Rudzka-Farna","latitude":51.70103,"longitude":19.43847},{"id":1157,"name":"Rudzka-Przestrzenna","latitude":51.70305,"longitude":19.43746},{"id":1158,"name":"Rudzka-Municypalna","latitude":51.70548,"longitude":19.43418},{"id":1159,"name":"Rudzka-Pabianicka","latitude":51.71018,"longitude":19.4295},{"id":1160,"name":"Chocianowicka-Pabianicka","latitude":51.70657,"longitude":19.42184},{"id":1161,"name":"Aleksandrowska-Szparagowa","latitude":51.80148,"longitude":19.37547},{"id":1162,"name":"Rydzowa-Lniana","latitude":51.79727,"longitude":19.37524},{"id":1164,"name":"MATEK POLSKICH","latitude":51.70356,"longitude":19.48088},{"id":1165,"name":"Rzgowska-ICZMP szpital","latitude":51.70467,"longitude":19.48376},{"id":1166,"name":"Rzgowska-Kurczaki","latitude":51.71818,"longitude":19.4865},{"id":1167,"name":"Rzgowska-Kurczaki","latitude":51.71849,"longitude":19.48623},{"id":1168,"name":"Rzgowska-cm. Rzgowska","latitude":51.7212,"longitude":19.4839},{"id":1169,"name":"Rzgowska-cm. Rzgowska","latitude":51.72124,"longitude":19.48401},{"id":1170,"name":"Rzgowska-Dachowa","latitude":51.72512,"longitude":19.4806},{"id":1171,"name":"Rzgowska-Dachowa","latitude":51.7249,"longitude":19.48103},{"id":1172,"name":"Dw. Łódź Chojny","latitude":51.72632,"longitude":19.47999},{"id":1173,"name":"Dw. Łódź Chojny","latitude":51.72646,"longitude":19.48005},{"id":1174,"name":"Dw. Łódź Chojny","latitude":51.72653,"longitude":19.4802},{"id":1175,"name":"Dw. Łódź Chojny","latitude":51.72653,"longitude":19.48044},{"id":1176,"name":"Rzgowska-Paderewskiego","latitude":51.73153,"longitude":19.47409},{"id":1177,"name":"Rzgowska-Dachowa","latitude":51.72443,"longitude":19.48098},{"id":1178,"name":"Rzgowska-Lecznicza","latitude":51.73413,"longitude":19.47151},{"id":1179,"name":"Rzgowska-Lecznicza","latitude":51.73407,"longitude":19.47157},{"id":1180,"name":"Rzgowska-Dąbrowskiego","latitude":51.73839,"longitude":19.46718},{"id":1181,"name":"Rzgowska-Dąbrowskiego","latitude":51.73802,"longitude":19.46754},{"id":1182,"name":"Rzgowska-Paderewskiego","latitude":51.73084,"longitude":19.47452},{"id":1183,"name":"Rzgowska-cm. Rzgowska","latitude":51.72107,"longitude":19.48385},{"id":1184,"name":"Rzgowska-cm. Rzgowska","latitude":51.72048,"longitude":19.48402},{"id":1185,"name":"Rzgowska-Kurczaki","latitude":51.71727,"longitude":19.485},{"id":1186,"name":"Strażacka-Rzgowska","latitude":51.71779,"longitude":19.48312},{"id":1187,"name":"Rzgowska-św. Wojciecha","latitude":51.71411,"longitude":19.48626},{"id":1188,"name":"Paradna-Rzgowska","latitude":51.70944,"longitude":19.48709},{"id":1189,"name":"Rzgowska-Paradna","latitude":51.70849,"longitude":19.48671},{"id":1190,"name":"Rzgowska-ICZMP szpital","latitude":51.70342,"longitude":19.48203},{"id":1191,"name":"Rzgowska-Zagłoby","latitude":51.69873,"longitude":19.47891},{"id":1192,"name":"Ustronna","latitude":51.69995,"longitude":19.47268},{"id":1193,"name":"Graniczna-Graniczna 62","latitude":51.69723,"longitude":19.46874},{"id":1195,"name":"Centrum Handlowe PTAK","latitude":51.64719,"longitude":19.49029},{"id":1197,"name":"Sanitariuszek-Dw. Łódź Lublinek","latitude":51.71896,"longitude":19.35936},{"id":1198,"name":"Sanitariuszek-Biwakowa","latitude":51.72331,"longitude":19.35439},{"id":1199,"name":"Sanitariuszek-Dw. Łódź Lublinek","latitude":51.71919,"longitude":19.35885},{"id":1200,"name":"Sanitariuszek-Łaskowice","latitude":51.71337,"longitude":19.36578},{"id":1201,"name":"Sienkiewicza-Piłsudskiego","latitude":51.75819,"longitude":19.4634},{"id":1202,"name":"Wigury-Kilińskiego","latitude":51.75721,"longitude":19.46886},{"id":1203,"name":"Sienkiewicza-park Sienkiewicza","latitude":51.76444,"longitude":19.46201},{"id":1204,"name":"Sienkiewicza-Narutowicza","latitude":51.76979,"longitude":19.46088},{"id":1205,"name":"Sienkiewicza-Pogotowie Ratunkowe","latitude":51.75482,"longitude":19.46384},{"id":1206,"name":"Tymienieckiego-Kilińskiego","latitude":51.75132,"longitude":19.47229},{"id":1207,"name":"Sikorskiego-Nastrojowa","latitude":51.81751,"longitude":19.44491},{"id":1208,"name":"Sikorskiego-Nastrojowa","latitude":51.81753,"longitude":19.44367},{"id":1209,"name":"Sikorskiego-Studzińskiego","latitude":51.81641,"longitude":19.43961},{"id":1210,"name":"Zgierska-Sikorskiego","latitude":51.81485,"longitude":19.43439},{"id":1211,"name":"Skalna-Kasprowy Wierch","latitude":51.77528,"longitude":19.53609},{"id":1212,"name":"Zbocze-Potokowa","latitude":51.77654,"longitude":19.53094},{"id":1216,"name":"Skłodowskiej-Curie-Żeromskiego","latitude":51.76333,"longitude":19.44696},{"id":1217,"name":"Skłodowskiej-Curie-Gdańska","latitude":51.76452,"longitude":19.45129},{"id":1218,"name":"Skrzydlata-Kasztelańska","latitude":51.8132,"longitude":19.47327},{"id":1219,"name":"Skrzydlata-Żucza","latitude":51.81798,"longitude":19.47369},{"id":1220,"name":"Arturówek","latitude":51.82136,"longitude":19.47432},{"id":1221,"name":"Skrzydlata-Żucza","latitude":51.8181,"longitude":19.47364},{"id":1222,"name":"Skrzydlata-Kasztelańska","latitude":51.81366,"longitude":19.4731},{"id":1224,"name":"Warszawska-Centralna","latitude":51.81052,"longitude":19.48006},{"id":1225,"name":"Solec-Borowa","latitude":51.77821,"longitude":19.41123},{"id":1227,"name":"Sporna-Wojska Polskiego","latitude":51.78953,"longitude":19.47904},{"id":1228,"name":"Sporna-Bracka","latitude":51.79253,"longitude":19.47822},{"id":1229,"name":"Inflancka-Zagajnikowa","latitude":51.80034,"longitude":19.47623},{"id":1230,"name":"Sporna-Bracka","latitude":51.79198,"longitude":19.47811},{"id":1231,"name":"Wojska Polskiego-Sporna","latitude":51.78883,"longitude":19.4778},{"id":1233,"name":"Srebrzyńska-Jarzynowa","latitude":51.77445,"longitude":19.40852},{"id":1234,"name":"Srebrzyńska-Unii Lubelskiej","latitude":51.77286,"longitude":19.41693},{"id":1235,"name":"Konstantynowska-Unii Lubelskiej","latitude":51.76743,"longitude":19.42192},{"id":1236,"name":"Bandurskiego-Atlas Arena","latitude":51.75602,"longitude":19.42649},{"id":1237,"name":"Unii Lubelskiej-Praussa","latitude":51.77611,"longitude":19.41564},{"id":1238,"name":"Srebrzyńska-Koziny","latitude":51.77269,"longitude":19.42252},{"id":1239,"name":"Srebrzyńska-Koziny","latitude":51.77256,"longitude":19.42316},{"id":1240,"name":"Srebrzyńska-Kasprzaka","latitude":51.77335,"longitude":19.42696},{"id":1241,"name":"Srebrzyńska-cm. Ogrodowa","latitude":51.77544,"longitude":19.43576},{"id":1242,"name":"Srebrzyńska-Unii Lubelskiej","latitude":51.77312,"longitude":19.41615},{"id":1243,"name":"Srebrzyńska-Jarzynowa","latitude":51.77436,"longitude":19.40966},{"id":1244,"name":"Srebrzyńska-cm. Mania","latitude":51.77573,"longitude":19.40622},{"id":1245,"name":"Żeromskiego-pl. Barlickiego","latitude":51.76897,"longitude":19.44619},{"id":1246,"name":"Struga-Pogonowskiego","latitude":51.76445,"longitude":19.4439},{"id":1247,"name":"Struga-Żeligowskiego","latitude":51.76419,"longitude":19.44078},{"id":1248,"name":"Łąkowa-Karolewska","latitude":51.76138,"longitude":19.44119},{"id":1249,"name":"Palki-Smutna","latitude":51.78797,"longitude":19.485},{"id":1250,"name":"Doły-Telefoniczna","latitude":51.78374,"longitude":19.49129},{"id":1251,"name":"Telefoniczna-Bystrzycka","latitude":51.78299,"longitude":19.49318},{"id":1252,"name":"Palki-Wojska Polskiego","latitude":51.79018,"longitude":19.48696},{"id":1253,"name":"Wojska Polskiego-Palki","latitude":51.7908,"longitude":19.48593},{"id":1254,"name":"Strykowska-Inflancka","latitude":51.79712,"longitude":19.48812},{"id":1255,"name":"Wojska Polskiego-Łomnicka","latitude":51.79364,"longitude":19.49483},{"id":1256,"name":"Strykowska-Kwarcowa","latitude":51.80269,"longitude":19.4934},{"id":1257,"name":"Strykowska-Opolska","latitude":51.80679,"longitude":19.49946},{"id":1258,"name":"Strykowska-Herbowa","latitude":51.81256,"longitude":19.50316},{"id":1259,"name":"Strykowska-Łodzianka","latitude":51.82496,"longitude":19.51999},{"id":1260,"name":"Strykowska-Okólna","latitude":51.82981,"longitude":19.53105},{"id":1261,"name":"Strykowska-Jana i Cecylii","latitude":51.83445,"longitude":19.5416},{"id":1262,"name":"Strykowska-Strykowska 241","latitude":51.83826,"longitude":19.5503},{"id":1263,"name":"Strykowska-Imielnik Nowy","latitude":51.84252,"longitude":19.55847},{"id":1265,"name":"Strykowska-Strykowska 241","latitude":51.83812,"longitude":19.54956},{"id":1267,"name":"Strykowska-Jana i Cecylii","latitude":51.83428,"longitude":19.54079},{"id":1268,"name":"Strykowska-Okólna","latitude":51.8296,"longitude":19.53017},{"id":1269,"name":"Strykowska-Łodzianka","latitude":51.82586,"longitude":19.52156},{"id":1270,"name":"Strykowska-Rogowska","latitude":51.81945,"longitude":19.50694},{"id":1271,"name":"Strykowska-Opolska","latitude":51.80702,"longitude":19.49948},{"id":1272,"name":"Strykowska-Kwarcowa","latitude":51.80264,"longitude":19.49294},{"id":1273,"name":"Palki-Wojska Polskiego","latitude":51.79037,"longitude":19.4865},{"id":1274,"name":"Doły","latitude":51.79719,"longitude":19.48762},{"id":1275,"name":"Doły","latitude":51.79705,"longitude":19.48751},{"id":1276,"name":"Wojska Polskiego-Palki","latitude":51.79142,"longitude":19.48655},{"id":1277,"name":"Palki-Smutna","latitude":51.78735,"longitude":19.48393},{"id":1278,"name":"Palki-Źródłowa","latitude":51.78026,"longitude":19.4821},{"id":1279,"name":"Uniwersytecka-rondo Solidarności","latitude":51.77854,"longitude":19.48004},{"id":1280,"name":"Pomorska-rondo Solidarności","latitude":51.77889,"longitude":19.48242},{"id":1281,"name":"Szczecińska-św. Teresy","latitude":51.81208,"longitude":19.37754},{"id":1282,"name":"Cm. Szczecińska","latitude":51.81685,"longitude":19.382},{"id":1284,"name":"Szczecińska-św. Teresy","latitude":51.81278,"longitude":19.37814},{"id":1285,"name":"Św. Teresy-Kaczeńcowa","latitude":51.80944,"longitude":19.3907},{"id":1286,"name":"Św. Teresy-św. Teresy 109","latitude":51.81119,"longitude":19.38246},{"id":1287,"name":"Wersalska-Szczecińska","latitude":51.80956,"longitude":19.37788},{"id":1288,"name":"Wersalska-Wersalska 47","latitude":51.80868,"longitude":19.37941},{"id":1289,"name":"Szparagowa-Aleksandrowska","latitude":51.80247,"longitude":19.37736},{"id":1290,"name":"Rydzowa-Aleksandrowska","latitude":51.8008,"longitude":19.37577},{"id":1291,"name":"Aleksandrowska-Rydzowa","latitude":51.80088,"longitude":19.37717},